[
  {
    "id": "AHMEDABAD~GUJARAT~INDIA",
    "cityName": "Ahmedabad",
    "stateName": "Gujarat",
    "countryName": "India",
    "latitde": "23.0225",
    "longitude": "72.5714",
    "defaultPartnerIdCity": "",
    "defaultBranchIdCity": "",
    "experienceCenter": [
      {
        "id": "a0K9C000000TYtaUAG",
        "accountpartnerId": "0019C000003RRftQAG",
        "experienceCenterName": "WH-RAJDEEP AUTOMOBILES",
        "type": "Warehouse",
        "address": "RAJDEEP HERO, OPP RAGHAV INDUSTRIAL PARK, NR BARODA EXPRESS WAY, SP RING ROAD, RAMOL, AHMEDABAD-382330 , AHMEDABAD,GUJARAT, India-382330",
        "postalCode": "382330",
        "longitude": "72.66261329999999",
        "latitude": "22.9846715"
      },
      {
        "id": "a0K9C000000TqwUUAS",
        "accountpartnerId": "0019C000003RRftQAG",
        "experienceCenterName": "RAJDEEP AUTOMOBILES",
        "type": "Experience Centre",
        "address": "RAJDEEP HERO, NR BHARVI TOWER, CTM CROSS ROAD, CTM Ahmedabad HQ Region, AHMEDABAD,GUJARAT, India-380026",
        "postalCode": "380026",
        "longitude": "72.63555",
        "latitude": "23.00166"
      },
      {
        "id": "a0K9C000000TtobUAC",
        "accountpartnerId": "0019C000003RRftQAG",
        "experienceCenterName": "AW-RAJDEEP AUTOMOBILES-OnSite",
        "type": "Mobile Service Branch",
        "address": "NH 8, near Bhairavi Tower, C T M, Amraiwadi, Ahmedabad, Gujarat-380026 Ahmedabad HQ Region, AHMEDABAD,GUJARAT, India-380026",
        "postalCode": "380026",
        "longitude": "72.6337395767845",
        "latitude": "22.993303954817005"
      },
      {
        "id": "a0KOX0000085biI2AQ",
        "accountpartnerId": "001OX00000BzYo3YAF",
        "experienceCenterName": "KARNAVATI BIKES",
        "type": "Experience Centre",
        "address": "20-23, Anupam Colony, Opp Chirag Diamond, LBS Road, Bapunagar , AHMEDABAD,GUJARAT, India-382330",
        "postalCode": "382330",
        "longitude": "72.631801",
        "latitude": "23.042634"
      },
      {
        "id": "a0KOX0000085g8T2AQ",
        "accountpartnerId": "001OX00000BzYo3YAF",
        "experienceCenterName": "WH- KARNAVATI BIKES",
        "type": "Warehouse",
        "address": "145 6 1, DARSHAN IND ESTATE, B H ANIL STARCH, B S CHIRAG DIAMOND, SHASHTRI ROAD, BAPUNAGAR, AHMEDABAD , ,, -30295",
        "postalCode": "30295",
        "longitude": "72.677022",
        "latitude": "23.116263"
      },
      {
        "id": "a0KOX000008JIfl2AG",
        "accountpartnerId": "001OX00000CVSpEYAX",
        "experienceCenterName": "BIKES AUTO",
        "type": "Experience Centre",
        "address": "BIKES AUTO, NR VIJAY RESTAURANT, DRIVE IN ROAD NAVRANGPURA, AHMEDABAD Ahmedabad HQ Region, AHMEDABAD,GUJARAT, India-380009",
        "postalCode": "380009",
        "longitude": "72.55063258881681",
        "latitude": "23.04173586058944"
      },
      {
        "id": "a0KOX000008JIkb2AG",
        "accountpartnerId": "001OX00000CVSpEYAX",
        "experienceCenterName": "Wh- BIKES AUTO",
        "type": "Warehouse",
        "address": "VIRVIJAY AGENCIES, BEHIND CITY PULSE NH-8 SARKHEJ Ahmedabad HQ Region, AHMEDABAD,GUJARAT, India-380009",
        "postalCode": "380009",
        "longitude": "",
        "latitude": ""
      },
      {
        "id": "a0KOX000008QCc22AG",
        "accountpartnerId": "001OX00000ChpmlYAB",
        "experienceCenterName": "RAJ VEHICLES",
        "type": "Experience Centre",
        "address": "BLOCK NO-407, FP-10, BOPAL CIRCLE, AMBLI-BOPAL Ahmedabad HQ Region, AHMEDABAD,GUJARAT, India-380058",
        "postalCode": "380058",
        "longitude": "72.4755049",
        "latitude": "23.0233679"
      },
      {
        "id": "a0KOX000008QDMo2AO",
        "accountpartnerId": "001OX00000ChpmlYAB",
        "experienceCenterName": "WH-RAJ VEHICLES",
        "type": "Warehouse",
        "address": "BLOCK NO-407, FP-10, BOPAL CIRCLE, AMBLI-BOPAL Ahmedabad HQ Region, AHMEDABAD,GUJARAT, India-380058",
        "postalCode": "380058",
        "longitude": "72.4780798",
        "latitude": "23.0233679"
      },
      {
        "id": "a0KOX00000CQDyx2AH",
        "accountpartnerId": "001OX00000M4nAZYAZ",
        "experienceCenterName": "WH-BIKES AUTOMOTIVE",
        "type": "Warehouse",
        "address": "GROUND FLOOR, SANAND SQUARE, OPP HAJARI TEMPLE, SANAND, AHMEDABAD Ahmedabad HQ Region, AHMEDABAD,GUJARAT, India-382110",
        "postalCode": "382110",
        "longitude": "72.370842",
        "latitude": "22.992443"
      },
      {
        "id": "a0KOX00000CQGdQ2AX",
        "accountpartnerId": "001OX00000M4nAZYAZ",
        "experienceCenterName": "BIKES AUTOMOTIVE",
        "type": "Experience Centre",
        "address": "GROUND FLOOR, SANAND SQUARE, OPP HAJARI TEMPLE, SANAND, AHMEDABAD Ahmedabad HQ Region, AHMEDABAD,GUJARAT, India-382110",
        "postalCode": "382110",
        "longitude": "72.370842",
        "latitude": "22.992443"
      },
      {
        "id": "a0KOX00000EuXfa2AF",
        "accountpartnerId": "001OX00000ChpmlYAB",
        "experienceCenterName": "Raj Vehicles - VIDA HUB",
        "type": "Experience Centre",
        "address": "GF Shop no-B 4 1, Indira Park Society, Jodhpur Cross Road, Ahemdabad, Gujarat Ahmedabad HQ Region, AHMEDABAD,GUJARAT, India-380015",
        "postalCode": "380015",
        "longitude": "72.52575149",
        "latitude": "23.0254615"
      },
      {
        "id": "a0KOX00000F6h8B2AR",
        "accountpartnerId": "0019C000003RRftQAG",
        "experienceCenterName": "AW-RAJDEEP AUTOMOBILES-Wshop",
        "type": "ServiceBranch",
        "address": "NR CTM CHAR RASTA, AMRAIWADI, NH-8 Ahmedabad HQ Region, AHMEDABAD,GUJARAT, India-380026",
        "postalCode": "380026",
        "longitude": "72.635449",
        "latitude": "22.99880938"
      },
      {
        "id": "a0KOX00000F6mXc2AJ",
        "accountpartnerId": "001OX00000CVSpEYAX",
        "experienceCenterName": "AW-BIKES AUTO-Wshop",
        "type": "ServiceBranch",
        "address": "NR VIJAY RESTAURANT, AHMEDABAD Ahmedabad HQ Region, AHMEDABAD,GUJARAT, India-380009",
        "postalCode": "380009",
        "longitude": "72.55064072",
        "latitude": "23.04202077"
      },
      {
        "id": "a0KOX00000F6rfL2AR",
        "accountpartnerId": "001OX00000BzYo3YAF",
        "experienceCenterName": "AW-KARNAVATI BIKES-Wshop",
        "type": "ServiceBranch",
        "address": "20 23, ANUPAM COLONY, OPP CHIRAG, AHMEDABAD- BAPUNAGAR Ahmedabad HQ Region, AHMEDABAD,GUJARAT, India-380024",
        "postalCode": "380024",
        "longitude": "72.55054385",
        "latitude": "23.04315479"
      }
    ],
    "serviceCenter": [
      {
        "id": "a0K9C000000TtobUAC",
        "accountpartnerId": "0019C000003RRftQAG",
        "experienceCenterName": "AW-RAJDEEP AUTOMOBILES-OnSite",
        "type": "Mobile Service Branch",
        "address": "NH 8, near Bhairavi Tower, C T M, Amraiwadi, Ahmedabad, Gujarat-380026 Ahmedabad HQ Region, AHMEDABAD,GUJARAT, India-380026",
        "postalCode": "380026",
        "longitude": "72.6337395767845",
        "latitude": "22.993303954817005"
      },
      {
        "id": "a0KOX00000F6h8B2AR",
        "accountpartnerId": "0019C000003RRftQAG",
        "experienceCenterName": "AW-RAJDEEP AUTOMOBILES-Wshop",
        "type": "ServiceBranch",
        "address": "NR CTM CHAR RASTA, AMRAIWADI, NH-8 Ahmedabad HQ Region, AHMEDABAD,GUJARAT, India-380026",
        "postalCode": "380026",
        "longitude": "72.635449",
        "latitude": "22.99880938"
      },
      {
        "id": "a0KOX00000F6mXc2AJ",
        "accountpartnerId": "001OX00000CVSpEYAX",
        "experienceCenterName": "AW-BIKES AUTO-Wshop",
        "type": "ServiceBranch",
        "address": "NR VIJAY RESTAURANT, AHMEDABAD Ahmedabad HQ Region, AHMEDABAD,GUJARAT, India-380009",
        "postalCode": "380009",
        "longitude": "72.55064072",
        "latitude": "23.04202077"
      },
      {
        "id": "a0KOX00000F6rfL2AR",
        "accountpartnerId": "001OX00000BzYo3YAF",
        "experienceCenterName": "AW-KARNAVATI BIKES-Wshop",
        "type": "ServiceBranch",
        "address": "20 23, ANUPAM COLONY, OPP CHIRAG, AHMEDABAD- BAPUNAGAR Ahmedabad HQ Region, AHMEDABAD,GUJARAT, India-380024",
        "postalCode": "380024",
        "longitude": "72.55054385",
        "latitude": "23.04315479"
      }
    ],
    "chargingStations": [
      {
        "stationId": "79",
        "stationName": "BPCL GANESH",
        "chargingStationAddress": "BPCL GANESH PETROLEUM, NEAR, Jodhpur Char Rasta, Surya Pooja Block B, TEKRA, Ahmedabad, Gujarat 380014",
        "longitude": "72.52617810",
        "latitude": "23.0267926",
        "cityLocation": ""
      },
      {
        "stationId": "80",
        "stationName": "BPCL ALKA",
        "chargingStationAddress": "BPCL ALKA AUTOMOBILES, 62,Alka Automobiles. Nirnay Nagar Sector I, Nirnay Nagar, Ahmedabad, Gujarat 382481",
        "longitude": "72.55906130",
        "latitude": "23.0720535",
        "cityLocation": ""
      },
      {
        "stationId": "82",
        "stationName": "BPCL PAVAN",
        "chargingStationAddress": "BPCL PAVAN PETROLEUM PAVAN PETROLEUM Nutan Mill Compound Bapu Nagar Near City Gold Cinema Ahmedabad Gujarat 380018",
        "longitude": "72.6137592",
        "latitude": "23.0369263",
        "cityLocation": ""
      },
      {
        "stationId": "83",
        "stationName": "Super Plaza",
        "chargingStationAddress": "Super Plaza, Ground Floor Shop No. 30, Sandesh Press RD, Vastrapur, Ahmedabad , Gujarat",
        "longitude": "72.5240259",
        "latitude": "23.0390386",
        "cityLocation": ""
      },
      {
        "stationId": "84",
        "stationName": "Time Square Grand",
        "chargingStationAddress": "Time Square Grand, Near Satva Vikas School, Sindhu Bhavan Road, Ahmedabad , Gujarat",
        "longitude": "72.4990311",
        "latitude": "23.041604",
        "cityLocation": ""
      },
      {
        "stationId": "85",
        "stationName": "Rajdeep Automobiles",
        "chargingStationAddress": "RAJDEEP HERO, NR. BHARVITOWER,CTM CROSS ROAD. CTM, AHMEDABAD, Gujarat",
        "longitude": "72.6354093",
        "latitude": "22.998514",
        "cityLocation": ""
      },
      {
        "stationId": "86",
        "stationName": "BPCL KRUPA",
        "chargingStationAddress": "BPCL KRUPA PETROLEUM SERVICES, Parimal Garden, Ellis bridge, Ahmedabad, Gujarat",
        "longitude": "72.5593624",
        "latitude": "23.0204444",
        "cityLocation": ""
      },
      {
        "stationId": "92",
        "stationName": "BPCL Gajanan",
        "chargingStationAddress": "Gajanan, Plot No, SURVEY NO. 1205, 0.P. NO. 88/212, F.P. NO. 88/212, VASTRAL(SARDAR PATEL RING ROAD), VASTRAL TAL CITIY(EAST), Ahmadabad, Gujarat",
        "longitude": "72.6669401",
        "latitude": "22.9993074",
        "cityLocation": ""
      },
      {
        "stationId": "93",
        "stationName": "BPCL Anjani",
        "chargingStationAddress": "ANJANI PETROLEUM ,Sardar Patel Ring Rd, Odhav, Ahmedabad, Gujarat",
        "longitude": "72.6734273",
        "latitude": "23.0291707",
        "cityLocation": ""
      },
      {
        "stationId": "96",
        "stationName": "Shajanand Trade Center",
        "chargingStationAddress": "Shajanand Trade Centre, Opposite Kothawala Flats, Ellisbridge, Ahmedabad ,Gujarat",
        "longitude": "72.5676158",
        "latitude": "23.017608",
        "cityLocation": ""
      },
      {
        "stationId": "177",
        "stationName": "Kanku Bag Mall",
        "chargingStationAddress": "01, Kankubag party plot, Nirant Char Rasta, Tejendra Bunglows, Ahmedabad 382418",
        "longitude": "72.6583811",
        "latitude": "22.9998241",
        "cityLocation": ""
      },
      {
        "stationId": "338",
        "stationName": "Bikes Auto",
        "chargingStationAddress": "Bikes Auto , Opposite Gold coin flats, Near Vijay cross Roads, Navrangpura Ahmedabad, 380009",
        "longitude": "72.55063",
        "latitude": "23.04172",
        "cityLocation": ""
      },
      {
        "stationId": "339",
        "stationName": "KARNAVATI BIKES",
        "chargingStationAddress": "KARNAVATI BIKES, 20 to 23 Anupam colony, opp. Chirag Diamond, Lal Bahadur Shastri Road, Bapunagar, Ahmedabad, Gujarat, 380024",
        "longitude": "72.62915",
        "latitude": "23.03252",
        "cityLocation": ""
      },
      {
        "stationId": "360",
        "stationName": "Raj Vehicles",
        "chargingStationAddress": "Raj Vehicles ,Block No. 407. FP -10, NR BOPAL Circle, Sardar Patel Marg Road, Ambli, Ahmedabad Gujarat 380058",
        "longitude": "72.47807",
        "latitude": "23.02336",
        "cityLocation": ""
      },
      {
        "stationId": "363",
        "stationName": "Nanda Automobiles",
        "chargingStationAddress": "PLOT NO.29, HERO MOTOCORPAUTHORISED DEALER, GTS ROAD, SECTOR 30, Ahmedabad, Gujarat, 382030",
        "longitude": "72.66848",
        "latitude": "23.24749",
        "cityLocation": ""
      }
    ],
    "swappingStations": [],
    "atherChargingStations": [
      {
        "stationId": "8052",
        "stationName": "GLOBETPS 2",
        "chargingStationAddress": "A2, NAVRANG SUPER MARKET, Navarangpura Gam, Navrangpura, Ahmedabad, Gujarat 380009",
        "longitude": "72.56465",
        "latitude": "23.035513",
        "cityLocation": ""
      },
      {
        "stationId": "8050",
        "stationName": "GLOBETPS",
        "chargingStationAddress": "A2, NAVRANG SUPER MARKET, Navarangpura Gam, Navrangpura, Ahmedabad, Gujarat 380009",
        "longitude": "72.56465",
        "latitude": "23.035513",
        "cityLocation": ""
      },
      {
        "stationId": "3904",
        "stationName": "The Shake Maker, HL Road",
        "chargingStationAddress": "HL, Commerce College Rd, opp. Yanki Sizzlers, Navrangpura, Ahmedabad, Gujarat 380009",
        "longitude": "72.5547464",
        "latitude": "23.0357907",
        "cityLocation": ""
      },
      {
        "stationId": "6018",
        "stationName": "Ather Service Center Nilkanth Avenue",
        "chargingStationAddress": "Nilkanth Avenue 2, Navjeevan road, near CU Shah college, Ashram Road, Ushmanpura",
        "longitude": "72.568115",
        "latitude": "23.04285",
        "cityLocation": ""
      },
      {
        "stationId": "7120",
        "stationName": "Ather Service Center Nilkanth Avenue 2",
        "chargingStationAddress": "Nilkanth Avenue 2, Navjeevan road, near CU Shah college, Ashram Road, Ushmanpura - 380014",
        "longitude": "72.568115",
        "latitude": "23.04285",
        "cityLocation": ""
      },
      {
        "stationId": "3712",
        "stationName": "Ather Space Ahmedabad",
        "chargingStationAddress": "Shop No. 01, Ground floor, 3rd Eye Vision Opp. Shivalik Plaza, near AMA, Panjrapole CharRasta, Ahmedabad, Gujarat 380006",
        "longitude": "72.54343",
        "latitude": "23.028326",
        "cityLocation": ""
      },
      {
        "stationId": "6797",
        "stationName": "CCD - Azad Building Ahmedabad",
        "chargingStationAddress": "SHOP NO. 01 GROUND FLOOR AZAD BUILDING, OPP. HOTEL REGENTA SHANTI NAGAR, ASHRAM ROAD, AHMADABAD - GUJARAT",
        "longitude": "72.57117",
        "latitude": "23.053164",
        "cityLocation": ""
      },
      {
        "stationId": "3864",
        "stationName": "Ather Space Maninagar",
        "chargingStationAddress": "Shop No : 2,3,4,5, Saujanya Apartment I Ashima Mill, Compound Near, Anupam Cinema, Shri Khandubhai Desai Marg, Khokhra, Ahmedabad - 380008",
        "longitude": "72.615616",
        "latitude": "23.008207",
        "cityLocation": ""
      },
      {
        "stationId": "6821",
        "stationName": "Royal Automobiles",
        "chargingStationAddress": "opp. SONERIYA BLOCK, nr. ESI HOSPITAL, Bapunagar, Ahmedabad, Gujarat 380021",
        "longitude": "72.6209155",
        "latitude": "23.0281706",
        "cityLocation": ""
      },
      {
        "stationId": "7098",
        "stationName": "Vraj Prabha Complex",
        "chargingStationAddress": "2nd floor,Vrajprabha complex,nr.Hotel ParkLand,Maninagar,a\u0027bad, Punit Maharaj Rd, Maninagar",
        "longitude": "72.61267",
        "latitude": "22.99511",
        "cityLocation": ""
      },
      {
        "stationId": "8177",
        "stationName": "Royal Automobiles 3",
        "chargingStationAddress": "opp. SONERIYA BLOCK, nr. ESI HOSPITAL, Bapunagar, Ahmedabad, Gujarat 380021",
        "longitude": "72.621666",
        "latitude": "23.0302",
        "cityLocation": ""
      },
      {
        "stationId": "7807",
        "stationName": "Shah Infinite Solutions Pvt Ltd",
        "chargingStationAddress": "Mansukh Nagar, Nava Vadaj, Ahmedabad, Gujarat 382480",
        "longitude": "72.56902",
        "latitude": "23.073229",
        "cityLocation": ""
      },
      {
        "stationId": "6100",
        "stationName": "CCD - Orchid Plaza",
        "chargingStationAddress": "ORCHID PLAZA, OPP NRI TOWER, JUDGES BUNGLOW ROAD",
        "longitude": "72.5143046",
        "latitude": "23.0383061",
        "cityLocation": ""
      },
      {
        "stationId": "7601",
        "stationName": "The TGB - Thanda Garam Bar",
        "chargingStationAddress": "Meghaninagar, Ahmedabad, Gujarat 380016",
        "longitude": "72.61794",
        "latitude": "23.05949",
        "cityLocation": ""
      },
      {
        "stationId": "3573",
        "stationName": "Navneet Institute",
        "chargingStationAddress": "101-102, Prarthana Complex, nr. Kakadia Hospital, opp. Dinesh Chambers, Bapunagar, Ahmedabad, Gujarat",
        "longitude": "72.630714",
        "latitude": "23.040249",
        "cityLocation": ""
      },
      {
        "stationId": "5292",
        "stationName": "Navneet Institute II",
        "chargingStationAddress": "101-102, Prarthana Complex, nr. Kakadia Hospital, opp. Dinesh Chambers, Bapunagar, Ahmedabad, Gujarat",
        "longitude": "72.63064",
        "latitude": "23.040852",
        "cityLocation": ""
      },
      {
        "stationId": "7881",
        "stationName": "1 Mart - Ahmedabad",
        "chargingStationAddress": "M M Rajputana Complex Near Hajra Masjid Opp Essar Petrol Pump Sarkhej Juhapura, Road, S arkhej, Ahmedabad, Gujarat 380055",
        "longitude": "72.51477",
        "latitude": "22.990013",
        "cityLocation": ""
      },
      {
        "stationId": "4802",
        "stationName": "1 MART",
        "chargingStationAddress": "M M Rajputana Complex Near Hajra Masjid Opp Essar Petrol Pump Sarkhej Juhapura, Road, S arkhej, Ahmedabad, Gujarat 380055",
        "longitude": "72.51477",
        "latitude": "22.990013",
        "cityLocation": ""
      },
      {
        "stationId": "8195",
        "stationName": "Shiv Battery",
        "chargingStationAddress": "11, Vrajeshwari Shopping Center, Nh 8, Virat Nagar Rd, opposite Petrol Pump, opposite Universal Honda Show Room, Ahmedabad, Gujarat 380024",
        "longitude": "72.638756",
        "latitude": "23.0299",
        "cityLocation": ""
      },
      {
        "stationId": "7296",
        "stationName": "Barmani Namkin",
        "chargingStationAddress": "A/97, Partik Tenament, B/H India Colony, HDFC BOB ATM, Bapunagar, 382350",
        "longitude": "72.6366418",
        "latitude": "23.0418268",
        "cityLocation": ""
      },
      {
        "stationId": "7945",
        "stationName": "P Brothers",
        "chargingStationAddress": "Shop No. 40, Ground Floor, VISHWAS CITY-2, New Judges Bunglow Rd, Pramukh Nagar, Chanakyapuri, Ahmedabad, Gujarat 380061",
        "longitude": "72.53414",
        "latitude": "23.078476",
        "cityLocation": ""
      },
      {
        "stationId": "6931",
        "stationName": "Hocco Eatery Gota 2",
        "chargingStationAddress": "10, Block-B, SHUKAN PLATINUM, G 10,11,12 Shukun Platinum, New SG Road, Vandhe Mataram Nagar, Shukan Lotus, Gota, 11 12, Shukan Platinum Rd, opposite Vandemataram Arcade, Vandematram Arcade, Gota, Ahme",
        "longitude": "72.54652",
        "latitude": "23.094688",
        "cityLocation": ""
      },
      {
        "stationId": "4599",
        "stationName": "Hocco Eatery Science City",
        "chargingStationAddress": "RIDDHI EATERY SCIENCE CITY,SHOP NO. 1-2-3, SATYAM COMPLEX, ,OPP. J.B.R. ARCADE, SCIENCE CITY ROAD, SOLA, Ahmedabad, Gujarat 380060",
        "longitude": "72.5114291",
        "latitude": "23.0748453",
        "cityLocation": ""
      },
      {
        "stationId": "4531",
        "stationName": "Hocco Eatery Gota",
        "chargingStationAddress": "Block-B, SHUKAN PLATINUM, G 10,11,12 Shukun Platinum, New SG Road, Vandhe Mataram Nagar, Shukan Lotus, Gota, Shukan Platinum Rd, Vandematram Arcade, Gota, Ahmedabad, Gujarat 382481",
        "longitude": "72.54658",
        "latitude": "23.095083",
        "cityLocation": ""
      },
      {
        "stationId": "7615",
        "stationName": "Anoop World Vision",
        "chargingStationAddress": "Anoop World Vision, Near haryali pan house 129 last bus stop, Bungalow Area, Kuber Nagar, Ahmedabad, Gujarat 382340",
        "longitude": "72.63639",
        "latitude": "23.070972",
        "cityLocation": ""
      },
      {
        "stationId": "3741",
        "stationName": "Hi Care RO system",
        "chargingStationAddress": "Sar 9 , MEHTA House DARAJI VAS, Hansol, Ahmedabad, Gujarat 382475",
        "longitude": "72.6232792",
        "latitude": "23.0844987",
        "cityLocation": ""
      },
      {
        "stationId": "6101",
        "stationName": "Jay Bhavani Car Wash",
        "chargingStationAddress": "624 Shaktinagar, New Fatehwadi, Sarkhej",
        "longitude": "72.4978204",
        "latitude": "22.9733829",
        "cityLocation": ""
      },
      {
        "stationId": "7896",
        "stationName": "Tea Post - The Desi Cafe - SBR",
        "chargingStationAddress": "Nr. Taj Lane Hotel, Sankalp Square Lane Nr. S. P. Ring Road, Sindhu Bhavan Marg, Road, Ahmedabad, Gujarat 380054",
        "longitude": "72.48387",
        "latitude": "23.045797",
        "cityLocation": ""
      },
      {
        "stationId": "7907",
        "stationName": "Tea Post - The Desi Cafe - SBR - 2",
        "chargingStationAddress": "Nr. Taj Lane Hotel, Sankalp Square Lane Nr. S. P. Ring Road, Sindhu Bhavan Marg, Road, Ahmedabad, Gujarat 380054",
        "longitude": "72.48387",
        "latitude": "23.0458",
        "cityLocation": ""
      },
      {
        "stationId": "8176",
        "stationName": "Rohit Estate 3",
        "chargingStationAddress": "Rohit Estate, Opp. Ujala Circle, Sarkhej - Gandhinagar Hwy, Sarkhej, Ahmedabad, Gujarat 382210",
        "longitude": "72.49231",
        "latitude": "22.97998",
        "cityLocation": ""
      },
      {
        "stationId": "8178",
        "stationName": "Rohit Estate 2",
        "chargingStationAddress": "Rohit Estate, Opp. Ujala Circle, Sarkhej - Gandhinagar Hwy, Sarkhej, Ahmedabad, Gujarat 382210",
        "longitude": "72.49231",
        "latitude": "22.97998",
        "cityLocation": ""
      },
      {
        "stationId": "4518",
        "stationName": "Rohit Estate",
        "chargingStationAddress": "Rohit Estate, Opp. Ujala Circle, Sarkhej - Gandhinagar Hwy, Sarkhej, Ahmedabad, Gujarat 382210",
        "longitude": "72.49215",
        "latitude": "22.98003",
        "cityLocation": ""
      },
      {
        "stationId": "3321",
        "stationName": "Hocco Eatery, Vastral",
        "chargingStationAddress": "MADHAV 99 19, Nirant Cross Rd, Mahadev Nagar Tekra, Ahmedabad, Gujarat",
        "longitude": "72.65958",
        "latitude": "22.999203",
        "cityLocation": ""
      },
      {
        "stationId": "7058",
        "stationName": "NEW KAMA MOTOR WORKSHOP",
        "chargingStationAddress": "Sarkhej Sanand Road, Near ,mamta complax, nr. orange in hotel, Sarkhej, Ahmedabad, Gujarat 382210",
        "longitude": "72.4876450",
        "latitude": "22.9875198",
        "cityLocation": ""
      },
      {
        "stationId": "7206",
        "stationName": "Krishna Dairy Parlor \u0026 Provision Store",
        "chargingStationAddress": "130, Nilkanth Society, Dharnidhar, Opposite Madhuvan Glory, Nava Naroda, Ahmedabad, 382345",
        "longitude": "72.6556710",
        "latitude": "23.0593434",
        "cityLocation": ""
      },
      {
        "stationId": "4627",
        "stationName": "Ather Space - Nikol",
        "chargingStationAddress": "PLOT NO.33/1/1, Nikol - Naroda Rd, near SHRUSHTI LAVISH, opp. BLOCK-C, Nikol, Ahmedabad, Gujarat 382330",
        "longitude": "72.6716157",
        "latitude": "23.0618656",
        "cityLocation": ""
      },
      {
        "stationId": "8021",
        "stationName": "Brahmani Battery",
        "chargingStationAddress": "19, Ratnam Royal, Nr. Fire Station, TP-44, Chandkheda, Ahmedabad - 380005",
        "longitude": "72.60094",
        "latitude": "23.119673",
        "cityLocation": ""
      },
      {
        "stationId": "3822",
        "stationName": "Hocco Eatery Nikol",
        "chargingStationAddress": "Kasturi Pride, Nikol, Ahmedabad, Gujarat 380038",
        "longitude": "72.6804602",
        "latitude": "23.0454875",
        "cityLocation": ""
      },
      {
        "stationId": "6016",
        "stationName": "Le Cafeteria",
        "chargingStationAddress": "Sardar Patel Ring Rd, near Tapovan Circle, Ahmedabad, Gujarat",
        "longitude": "72.61008",
        "latitude": "23.121466",
        "cityLocation": ""
      },
      {
        "stationId": "7160",
        "stationName": "Xperia",
        "chargingStationAddress": "Opposite Radhe Fortune, Bhat Circle, S.P Ring Road, Ah,edabad",
        "longitude": "72.62907",
        "latitude": "23.116976",
        "cityLocation": ""
      },
      {
        "stationId": "4911",
        "stationName": "1944 The Hocco Kitchen, Vaishnodevi",
        "chargingStationAddress": "Vaishnodevi Cir, Ahmedabad, Gujarat",
        "longitude": "72.5418201",
        "latitude": "23.1346704",
        "cityLocation": ""
      },
      {
        "stationId": "4429",
        "stationName": "Prerna Weighbridge",
        "chargingStationAddress": "KAMOD, Satpanth Mandir Pirana Rd, near SHIV PRERANA INDUSTRIAL PARK, Ahmedabad, Gujarat 382427",
        "longitude": "72.5454704",
        "latitude": "22.9055489",
        "cityLocation": ""
      },
      {
        "stationId": "4924",
        "stationName": "Maruti Restaurant",
        "chargingStationAddress": "Maruti Restaurant ,Ashwamegh industrial park Kamod to Pirana road, Ahmedabad, Gujarat 382425",
        "longitude": "72.5447612",
        "latitude": "22.8994700",
        "cityLocation": ""
      },
      {
        "stationId": "4870",
        "stationName": "Adani Shantigram",
        "chargingStationAddress": "Adani Shantigram, Gujarat 382421",
        "longitude": "72.54274",
        "latitude": "23.1606",
        "cityLocation": ""
      },
      {
        "stationId": "4309",
        "stationName": "Prernapith Pirana",
        "chargingStationAddress": "Prernapith, Satpanth Mandir Pirana Rd, Pirana, Ahmedabad, Gujarat 382425",
        "longitude": "72.5433800",
        "latitude": "22.8836225",
        "cityLocation": ""
      },
      {
        "stationId": "3948",
        "stationName": "S P Construction",
        "chargingStationAddress": "27, Dholeshwar Nagar, Nr.  Saffron Hotel, Sarkhej-Bavla Road, Changodar, Ahmedabad",
        "longitude": "72.4441601",
        "latitude": "22.9246616",
        "cityLocation": ""
      },
      {
        "stationId": "7377",
        "stationName": "Backbone Pharma Pvt Ltd",
        "chargingStationAddress": "Unit no.42, silver industrial estate, B/H Ramdev masala changodarH, Changodar, Gujarat 382213",
        "longitude": "72.44312",
        "latitude": "22.919386",
        "cityLocation": ""
      },
      {
        "stationId": "4700",
        "stationName": "Anjali Gold Palace",
        "chargingStationAddress": "3-4, Behind Bank of Baroda, Nandej-Barejadi, Ahmedabad - 382435, Gujarat",
        "longitude": "72.6793718",
        "latitude": "22.8957649",
        "cityLocation": ""
      },
      {
        "stationId": "4502",
        "stationName": "Yash Engineering Services",
        "chargingStationAddress": "43, shyam estate, behind steel town, at post- moraiya, Changodar, Ahmedabad, Gujarat 382213",
        "longitude": "72.4388970",
        "latitude": "22.9102281",
        "cityLocation": ""
      },
      {
        "stationId": "5767",
        "stationName": "Ather Space Gandhinagar",
        "chargingStationAddress": "Shop No. A-1 to A-4, Swagat Rain forest -1 , Kudasan , Gandhinagar ,",
        "longitude": "72.63714",
        "latitude": "23.177402",
        "cityLocation": ""
      },
      {
        "stationId": "7617",
        "stationName": "Ather Service Centre Gandhinagar",
        "chargingStationAddress": "Shop No. A-1 to A-4, Swagat Rain forest -1 , Kudasan , Gandhinagar - 382421",
        "longitude": "72.637474",
        "latitude": "23.177454",
        "cityLocation": ""
      },
      {
        "stationId": "7376",
        "stationName": "Mint Packaging",
        "chargingStationAddress": "Kalptaru Industrial Estate, AT Moriya, Changodar, Gujarat 382213",
        "longitude": "72.423485",
        "latitude": "22.9122",
        "cityLocation": ""
      },
      {
        "stationId": "3925",
        "stationName": "The Thar Dry Port",
        "chargingStationAddress": "29FJ+P5M, near railway crossing,sanand - kadi highway, Sanand, Ahmedabad, Gujarat 382115",
        "longitude": "72.3802565",
        "latitude": "23.0242413",
        "cityLocation": ""
      },
      {
        "stationId": "4718",
        "stationName": "DP INNOVATION",
        "chargingStationAddress": "E/56 Second floor, GIDC Rd, Sector 26, Gandhinagar, Gujarat 382028",
        "longitude": "72.6351598",
        "latitude": "23.2554496",
        "cityLocation": ""
      },
      {
        "stationId": "8085",
        "stationName": "Ellence Energy",
        "chargingStationAddress": "Plot no E/200, Electronics Zone, G.I.D.C, Gandhinagar - Gujarat - 382028",
        "longitude": "72.63612",
        "latitude": "23.258917",
        "cityLocation": ""
      },
      {
        "stationId": "7355",
        "stationName": "Mira Pan Parlour",
        "chargingStationAddress": "Bavla-Dholka Road, Near Swaminarayan Mandir",
        "longitude": "72.36699",
        "latitude": "22.834272",
        "cityLocation": ""
      },
      {
        "stationId": "7942",
        "stationName": "Nirav Auto 2",
        "chargingStationAddress": "Dholka Helipad, Dholka, Ahmedabad Gujarat 382225",
        "longitude": "72.46086",
        "latitude": "22.720695",
        "cityLocation": ""
      },
      {
        "stationId": "7941",
        "stationName": "Nirav Auto",
        "chargingStationAddress": "Dholka Helipad, Dholka, Ahmedabad Gujarat 382225",
        "longitude": "72.46086",
        "latitude": "22.720695",
        "cityLocation": ""
      },
      {
        "stationId": "7836",
        "stationName": "Ather Space Anand - Lambhvel Road",
        "chargingStationAddress": "Survey No. 626/2 , Packey/2 , Anand-Lambhvel Road , Anand , Gujarat 388001 (Landmark :- Near Hanuman Mandir, Lambhvel Road)",
        "longitude": "72.93647",
        "latitude": "22.581392",
        "cityLocation": ""
      },
      {
        "stationId": "8035",
        "stationName": "HPCL - SUN PETROLEUM SERVICE - MEHSANA",
        "chargingStationAddress": "Palavasna Chowkadi, Vijapur Road, Mehsana, Gujarat 384003",
        "longitude": "72.37186",
        "latitude": "23.568087",
        "cityLocation": ""
      },
      {
        "stationId": "6726",
        "stationName": "CCD - Time Square Anand",
        "chargingStationAddress": "Patel Jyotsnaben Bhupendrabhai, Ram Krishna Seva Mandir, Chocolate Room, Village - Vallabh Vidhyanagar, Anand",
        "longitude": "72.93096",
        "latitude": "22.550013",
        "cityLocation": ""
      },
      {
        "stationId": "4351",
        "stationName": "Ather Space Mehsana",
        "chargingStationAddress": "F-35 , S9 Market , Opp. starline Maruti, Mehsana - Ahmedabad highway",
        "longitude": "72.36904",
        "latitude": "23.580898",
        "cityLocation": ""
      },
      {
        "stationId": "7195",
        "stationName": "Shree Mahavir Traders",
        "chargingStationAddress": "Opp. Sardar Gunj Bank, Near Kanaiya Transport, Ashok Stambh Road, 388001",
        "longitude": "72.95821",
        "latitude": "22.552769",
        "cityLocation": ""
      },
      {
        "stationId": "4129",
        "stationName": "Ather Service Center Mehsana",
        "chargingStationAddress": "Plot no. 3, opp. Gudalak Bajaj, behind Chaina garden party plot, Vidhyanagar, Nagalpur, Mehsana, Gujarat 384002",
        "longitude": "72.36996",
        "latitude": "23.582508",
        "cityLocation": ""
      },
      {
        "stationId": "8236",
        "stationName": "Savariya Multi Car House",
        "chargingStationAddress": "Nr. Hotel Mayur, Vadnagar Visnagar Highway, Vadnagar, Mehsana, Gujarat - 384355",
        "longitude": "72.61407",
        "latitude": "23.771885",
        "cityLocation": ""
      },
      {
        "stationId": "4272",
        "stationName": "Sheetal Enterprise",
        "chargingStationAddress": "Dinbandhu Society, Nehru Park Society, Bajwa, Vadodara, Gujarat 391320",
        "longitude": "73.1441637",
        "latitude": "22.3635405",
        "cityLocation": ""
      },
      {
        "stationId": "4182",
        "stationName": "C.R Scooter Old Chhani Road, Pandyabridge",
        "chargingStationAddress": "Beside D-Mart, Old Chhani Road, Near Pandya Bridge, Chhani Station Road, Vadodara, Gujarat 390007",
        "longitude": "73.1763562",
        "latitude": "22.3237836",
        "cityLocation": ""
      },
      {
        "stationId": "4746",
        "stationName": "Sun Complex",
        "chargingStationAddress": "Sun Buildings, Race Course Rd, Besides Citibank, Vadodara, Gujarat 390020",
        "longitude": "73.1602774",
        "latitude": "22.3088691",
        "cityLocation": ""
      },
      {
        "stationId": "3800",
        "stationName": "Ather Space Vadodara",
        "chargingStationAddress": "Ground Floor, Regent Tower, Race Course Rd,",
        "longitude": "73.165535",
        "latitude": "22.309437",
        "cityLocation": ""
      },
      {
        "stationId": "6775",
        "stationName": "Good Luck Unisex Salon \u0026 Beauty Studio",
        "chargingStationAddress": "Unit No 41, Star City 1, Ground Floor, Tower-E, Sun Pharma Road, B/S Amina Nagar, Tandalja",
        "longitude": "73.13959",
        "latitude": "22.290302",
        "cityLocation": ""
      },
      {
        "stationId": "3689",
        "stationName": "Reema Beauty Studio",
        "chargingStationAddress": "2 Parishram Society, Behind Blue Diamond, Near Fatehgunj Petrol Pump, Fatehgunj, Vadodara, Gujarat 390002",
        "longitude": "73.18874",
        "latitude": "22.324574",
        "cityLocation": ""
      },
      {
        "stationId": "7243",
        "stationName": "Reema Beauty Studio 2",
        "chargingStationAddress": "2 Parishram Society, Behind Blue Diamond, Near Fatehgunj Petrol Pump, Fatehgunj, Vadodara, Gujarat 390002",
        "longitude": "73.18874",
        "latitude": "22.324574",
        "cityLocation": ""
      },
      {
        "stationId": "4815",
        "stationName": "Hitansh Super Store",
        "chargingStationAddress": "opp. SBI cantonment branch besides gifts for you, Jayesh Colony, Fatehgunj, Vadodara, Gujarat 390002",
        "longitude": "73.1894090",
        "latitude": "22.3235934",
        "cityLocation": ""
      },
      {
        "stationId": "7212",
        "stationName": "Hitansh Super Store 2",
        "chargingStationAddress": "opp. SBI cantonment branch besides gifts for you, Jayesh Colony, Fatehgunj, Vadodara, Gujarat 390002",
        "longitude": "73.1894090",
        "latitude": "22.3235934",
        "cityLocation": ""
      }
    ]
  },
  {
    "id": "BENGALURU~KARNATAKA~INDIA",
    "cityName": "Bengaluru",
    "stateName": "Karnataka",
    "countryName": "India",
    "latitde": "12.972442",
    "longitude": "77.580643",
    "defaultPartnerIdCity": "",
    "defaultBranchIdCity": "",
    "experienceCenter": [
      {
        "id": "a0K5h00000769ymEAA",
        "accountpartnerId": "0015h000011mUwEAAU",
        "experienceCenterName": "Experience Centre Bengaluru- RT KRISHNA AUTOS",
        "type": "Experience Centre",
        "address": "Opp to Magadi road metro station, 76, RT Krishna Autos, Magadi Road, Magadi Road Area, Bengaluru-560023 Bengaluru HQ Region, BENGALURU,KARNATAKA, India-560023",
        "postalCode": "560023",
        "longitude": "77.597817",
        "latitude": "12.971077"
      },
      {
        "id": "a0K5h00000769ynEAA",
        "accountpartnerId": "0015h000011mUwEAAU",
        "experienceCenterName": "WH - BLR",
        "type": "Warehouse",
        "address": "Opp to Magadi road metro station, 76, RT Krishna Autos, Magadi Road, Magadi Road Area, Bengaluru-560023 , BENGALURU,KARNATAKA, India-560023",
        "postalCode": "560023",
        "longitude": "77.55473612668814",
        "latitude": "12.975250865097456"
      },
      {
        "id": "a0K5h00000769ypEAA",
        "accountpartnerId": "0015h000011mUwEAAU",
        "experienceCenterName": "AW-BLR-OnSite",
        "type": "Mobile Service Branch",
        "address": "Opp to Magadi road metro station, 76, RT Krishna Autos, Magadi Road, Magadi Road Area, Bengaluru-560023 , BENGALURU,KARNATAKA, India-560023",
        "postalCode": "560023",
        "longitude": "77.55473612668814",
        "latitude": "12.975250865097456"
      },
      {
        "id": "a0K9C000000Upu9UAC",
        "accountpartnerId": "0019C000003ZOCOQA4",
        "experienceCenterName": "BHAGATH MOTORS",
        "type": "Experience Centre",
        "address": "118, Horamavu Cross, Banasawadi Ring Raod, Bangalore, Karnataka India-560043 NA, BENGALURU,KARNATAKA, India-560043",
        "postalCode": "560043",
        "longitude": "77.65627625",
        "latitude": "13.01946548"
      },
      {
        "id": "a0K9C000000UpuEUAS",
        "accountpartnerId": "0019C000003ZOCOQA4",
        "experienceCenterName": "WH-BHAGATH MOTORS",
        "type": "Warehouse",
        "address": "118, Horamavu Cross, Banasawadi Ring Raod, Bangalore, Karnataka India-560064 NA, BENGALURU,KARNATAKA, India-560064",
        "postalCode": "560064",
        "longitude": "77.65641572883537",
        "latitude": "13.019376640455159"
      },
      {
        "id": "a0K9C000000UpxiUAC",
        "accountpartnerId": "0019C000003ZNgzQAG",
        "experienceCenterName": "SAI BIKES",
        "type": "Experience Centre",
        "address": "P-6E, 1st Stage, Peenya Industrial Area, Lakshmidevi Nagar, Tumkur Road Bengaluru HQ Region, BENGALURU,KARNATAKA, India-560085",
        "postalCode": "560085",
        "longitude": "77.52144317",
        "latitude": "13.03814173"
      },
      {
        "id": "a0K9C000000UpxnUAC",
        "accountpartnerId": "0019C000003ZNgzQAG",
        "experienceCenterName": "WH-SAI BIKES",
        "type": "Warehouse",
        "address": "P-6E, 1st Stage, Peenya Industrial Area, Lakshmidevi Nagar, Tumkur Road, Bangalore - 560058 Bengaluru HQ Region, BENGALURU,KARNATAKA, India-560085",
        "postalCode": "560085",
        "longitude": "77.544632",
        "latitude": "13.026587"
      },
      {
        "id": "a0K9C000000Uq0OUAS",
        "accountpartnerId": "0019C000003ZOWeQAO",
        "experienceCenterName": "SAI MOTORS_Bengaluru",
        "type": "Experience Centre",
        "address": "218, 100 FT RING ROD, 3RD STAGE, 3RD PHASE, 2ND BLOCK, BANASHANKARI Bengaluru HQ Region, BENGALURU,KARNATAKA, India-560085",
        "postalCode": "560085",
        "longitude": "77.54791413",
        "latitude": "12.92764448"
      },
      {
        "id": "a0K9C000000Uq0TUAS",
        "accountpartnerId": "0019C000003ZOWeQAO",
        "experienceCenterName": "WH -SAI MOTORS_Bengaluru",
        "type": "Warehouse",
        "address": "No 218, 100 Ft Ring Road, 3rd Stage, 3rd Phase, 2nd Block, Banashankari, Bangalore-560085 Bengaluru HQ Region, BENGALURU,KARNATAKA, India-560085",
        "postalCode": "560085",
        "longitude": "77.5488",
        "latitude": "12.92697"
      },
      {
        "id": "a0K9C000000Uq0YUAS",
        "accountpartnerId": "0019C000003ZO3tQAG",
        "experienceCenterName": "Vaayuratha Motors",
        "type": "Experience Centre",
        "address": "Vaayuratha Hero, 25-D Anand Nagar Chinnapanahalli, Marathahalli Outer Ring Rd, Marathahalli, Bengaluru, Karnataka-560037 NA, BENGALURU,KARNATAKA, India-560037",
        "postalCode": "560037",
        "longitude": "77.70056144",
        "latitude": "12.97163364"
      },
      {
        "id": "a0K9C000000Uq0dUAC",
        "accountpartnerId": "0019C000003ZO3tQAG",
        "experienceCenterName": "WH-Vaayuratha Motors",
        "type": "Warehouse",
        "address": "Vaayuratha Hero, 25-D Anand Nagar Chinnapanahalli, Marathahalli Outer Ring Rd, Marathahalli, Bengaluru, Karnataka-560037 NA, BENGALURU,KARNATAKA, India-560037",
        "postalCode": "560037",
        "longitude": "77.7018252",
        "latitude": "12.9645559"
      },
      {
        "id": "a0K9C000000VYW1UAO",
        "accountpartnerId": "0019C000003ZO3tQAG",
        "experienceCenterName": "AW - Vaayuratha Motors - Onsite",
        "type": "Mobile Service Branch",
        "address": "VAAYURATHA MOTORS, 25, 5D, AS MERIDIAN 2, BANGALORE, PIN-560037, KAR NA, BENGALURU,KARNATAKA, India-560037",
        "postalCode": "560037",
        "longitude": "",
        "latitude": ""
      },
      {
        "id": "a0K9C000000VYa3UAG",
        "accountpartnerId": "0019C000003ZOCOQA4",
        "experienceCenterName": "AW - Bhagath Motors - Onsite",
        "type": "Mobile Service Branch",
        "address": "BHAGATH MOTORS, WARD-25 118 HORAMAVU CROSS BANASAWA NA, BENGALURU,KARNATAKA, India-560043",
        "postalCode": "560043",
        "longitude": "",
        "latitude": ""
      },
      {
        "id": "a0K9C000000VYaDUAW",
        "accountpartnerId": "0019C000003ZNgzQAG",
        "experienceCenterName": "AW - SAI BIKES - Onsite",
        "type": "Mobile Service Branch",
        "address": "SAI BIKES, P-6E, PEENYA INDL AREA, LAKSHMIDEVI, BANGALORE, PIN-560058, KAR Bengaluru HQ Region, BENGALURU,KARNATAKA, India-560058",
        "postalCode": "560058",
        "longitude": "",
        "latitude": ""
      },
      {
        "id": "a0K9C000000VYaNUAW",
        "accountpartnerId": "0019C000003ZOWeQAO",
        "experienceCenterName": "AW - SAI MOTORS - Onsite_Bengaluru",
        "type": "Mobile Service Branch",
        "address": "SAI MOTORS, 218, 100 FT RING RD, BANASHANKARI, BANGALORE, PIN-560085, KAR Bengaluru HQ Region, BENGALURU,KARNATAKA, India-560085",
        "postalCode": "560085",
        "longitude": "",
        "latitude": ""
      },
      {
        "id": "a0KOX000003aamP2AQ",
        "accountpartnerId": "0015h000011mUwEAAU",
        "experienceCenterName": "RT KRISHNA AUTOS - VIDA HUB",
        "type": "",
        "address": "NO-260 5, 11TH MAIN, BOMMANAHALLI, HOSUR MAIN ROAD Bengaluru HQ Region, BENGALURU,KARNATAKA, India-560068",
        "postalCode": "560068",
        "longitude": "77.6307248",
        "latitude": "12.9047621"
      },
      {
        "id": "a0KOX000003gUw22AE",
        "accountpartnerId": "001OX000004xaABYAY",
        "experienceCenterName": "WH- RT KRISHNA AUTOS-PREMIA",
        "type": "Warehouse",
        "address": "791 A, RT Krishna Autos, ACES LAYOUT, AECS Layout B Block, Singasandra Bangalore Bengaluru HQ Region, BENGALURU,KARNATAKA, India-560068",
        "postalCode": "560068",
        "longitude": "77.64537035142382",
        "latitude": "12.880087017975555"
      },
      {
        "id": "a0KOX000003gX5t2AE",
        "accountpartnerId": "001OX000004xaABYAY",
        "experienceCenterName": "RT KRISHNA AUTOS - PREMIA",
        "type": "Experience Centre",
        "address": "No 793 and 794 A, M S Sornam Elite, AECS Layout, Singasandra, Bengaluru Bengaluru HQ Region, BENGALURU,KARNATAKA, India-560068",
        "postalCode": "560068",
        "longitude": "77.63075384012612",
        "latitude": "12.904815106194249"
      },
      {
        "id": "a0KOX00000555SP2AY",
        "accountpartnerId": "001OX000006uzQOYAY",
        "experienceCenterName": "PRAKASH MOTORS",
        "type": "Experience Centre",
        "address": "No-15, LALBAGH ROAD, BANGALORE, Bangalore Urban, KARNATAKA Bengaluru HQ Region, BENGALURU,KARNATAKA, India-560027",
        "postalCode": "560027",
        "longitude": "77.5066338",
        "latitude": "12.961693"
      },
      {
        "id": "a0KOX00000555dh2AA",
        "accountpartnerId": "001OX000006uzQOYAY",
        "experienceCenterName": "WH-PRAKASH MOTORS",
        "type": "Warehouse",
        "address": "No-15, LAL BAGH ROAD, BANGALORE, Bangalore Urban, KARNATAKA Bengaluru HQ Region, BENGALURU,KARNATAKA, India-560027",
        "postalCode": "560027",
        "longitude": "77.5066338",
        "latitude": "12.961693"
      },
      {
        "id": "a0KOX000006D6lh2AC",
        "accountpartnerId": "001OX000008lEe3YAE",
        "experienceCenterName": "BIMAL MOTORS",
        "type": "Experience Centre",
        "address": "NO-241 242 278 90, Byatarayanapura Village Bellary Road, National Highway 7, Bengaluru, Bengaluru Urban, Karnataka Bengaluru HQ Region, BENGALURU,KARNATAKA, India-560097",
        "postalCode": "560097",
        "longitude": "77.511119",
        "latitude": "13.0676625"
      },
      {
        "id": "a0KOX000006D73R2AS",
        "accountpartnerId": "001OX000008lEe3YAE",
        "experienceCenterName": "WH- BIMAL MOTORS",
        "type": "Warehouse",
        "address": "NO-241 242 278 90, Byatarayanapura Village Bellary Road, National Highway 7, Bengaluru, Bengaluru Urban, Karnataka Bengaluru HQ Region, BENGALURU,KARNATAKA, India-560097",
        "postalCode": "560097",
        "longitude": "77.511119",
        "latitude": "13.0676625"
      },
      {
        "id": "a0KOX000006ermw2AA",
        "accountpartnerId": "001OX000009TofOYAS",
        "experienceCenterName": "WH-SAI BIKES Premia",
        "type": "Warehouse",
        "address": "No-15 and Site No-16, Papareddy palya Mallathahalli Village, Yeshwanthpura hobli, Bangaluru Urban , BENGALURU,KARNATAKA, India-560072",
        "postalCode": "560072",
        "longitude": "77.505936",
        "latitude": "12.96862"
      },
      {
        "id": "a0KOX000006eshN2AQ",
        "accountpartnerId": "001OX000009TofOYAS",
        "experienceCenterName": "SAI BIKES Premia",
        "type": "Experience Centre",
        "address": "No-15 and Site No-16, Papareddy palya Mallathahalli Village, Yeshwanthpura hobli, Bangaluru Urban , BENGALURU,KARNATAKA, India-560072",
        "postalCode": "560072",
        "longitude": "77.505936",
        "latitude": "12.96862"
      },
      {
        "id": "a0KOX000006yfJN2AY",
        "accountpartnerId": "001OX00000A52wRYAR",
        "experienceCenterName": "POORNA MOTORS",
        "type": "Experience Centre",
        "address": "NO-115, RAJANNA COMPLEX MAGADI, MAIN ROAD BYADARAHALLI, ANJANA NAGARA , BENGALURU,KARNATAKA, India-560091",
        "postalCode": "560091",
        "longitude": "77.48572",
        "latitude": "12.9856281"
      },
      {
        "id": "a0KOX000006yffx2AA",
        "accountpartnerId": "001OX00000A52wRYAR",
        "experienceCenterName": "WH- POORNA MOTORS",
        "type": "Warehouse",
        "address": "NO-115, RAJANNA COMPLEX MAGADI, MAIN ROAD BYADARAHALLI, ANJANA NAGARA , BENGALURU,KARNATAKA, India-560091",
        "postalCode": "560091",
        "longitude": "77.48572",
        "latitude": "12.9856281"
      },
      {
        "id": "a0KOX000007NZ982AG",
        "accountpartnerId": "001OX00000ArGCCYA3",
        "experienceCenterName": "WH- MAX MOTORS",
        "type": "Warehouse",
        "address": "No-2 6, DR RAJKUMAR ROAD, 3rd Stage, Rajajinagar, Bengaluru Urban, Karnataka Bengaluru HQ Region, BENGALURU,KARNATAKA, India-560010",
        "postalCode": "560010",
        "longitude": "77.477678",
        "latitude": "12.9870307"
      },
      {
        "id": "a0KOX000007Ne2L2AS",
        "accountpartnerId": "001OX00000ArGCCYA3",
        "experienceCenterName": "MAX MOTORS",
        "type": "Experience Centre",
        "address": "No-2 6, Dr Rajkumar Rd, Udayam Nagar, Rajajinagar, Bengaluru Bengaluru HQ Region, BENGALURU,KARNATAKA, India-560010",
        "postalCode": "560010",
        "longitude": "77.477678",
        "latitude": "12.9870307"
      },
      {
        "id": "a0KOX000008mrDW2AY",
        "accountpartnerId": "001OX00000DKfytYAD",
        "experienceCenterName": "WH- V3S MOTORS",
        "type": "Warehouse",
        "address": "no-12 BTM 100FT ROAD Bengaluru HQ Region, BENGALURU,KARNATAKA, India-560029",
        "postalCode": "560029",
        "longitude": "77.6103",
        "latitude": "12.9198"
      },
      {
        "id": "a0KOX000008mvH92AI",
        "accountpartnerId": "001OX00000DKfytYAD",
        "experienceCenterName": "V3S MOTORS",
        "type": "Experience Centre",
        "address": "no-12 BTM 100FT ROAD Bengaluru HQ Region, BENGALURU,KARNATAKA, India-560029",
        "postalCode": "560029",
        "longitude": "77.6103",
        "latitude": "12.9198"
      },
      {
        "id": "a0KOX00000F6n8i2AB",
        "accountpartnerId": "0019C000003ZNgzQAG",
        "experienceCenterName": "AW-SAI BIKES-Wshop",
        "type": "ServiceBranch",
        "address": "P-6E, PEENYA INDL AREA, LAKSHMIDEVI, BANGALORE Bengaluru HQ Region, BENGALURU,KARNATAKA, India-560058",
        "postalCode": "560058",
        "longitude": "77.52134387",
        "latitude": "13.03798878"
      },
      {
        "id": "a0KOX00000F6qGE2AZ",
        "accountpartnerId": "001OX00000DKfytYAD",
        "experienceCenterName": "AW-V3S MOTORS-Wshop",
        "type": "ServiceBranch",
        "address": "12, 1st Stage, BTM 1st Stage, Bengaluru Bengaluru HQ Region, BENGALURU,KARNATAKA, India-560029",
        "postalCode": "560029",
        "longitude": "77.605451",
        "latitude": "12.930522"
      },
      {
        "id": "a0KOX00000F6r5s2AB",
        "accountpartnerId": "001OX000004xaABYAY",
        "experienceCenterName": "AW-RT KRISHNA AUTOS-Wshop",
        "type": "ServiceBranch",
        "address": "M S Sornam Elite, AECS Layout, Singasandra, Bengaluru Bengaluru HQ Region, BENGALURU,KARNATAKA, India-560068",
        "postalCode": "560068",
        "longitude": "77.631366",
        "latitude": "12.903609"
      },
      {
        "id": "a0KOX00000F6rAj2AJ",
        "accountpartnerId": "0019C000003ZO3tQAG",
        "experienceCenterName": "AW-VAAYURATHA MOTORS-Wshop",
        "type": "ServiceBranch",
        "address": "25, 5D, AS MERIDIAN 2, BANGALORE NA, BENGALURU,KARNATAKA, India-560037",
        "postalCode": "560037",
        "longitude": "77.7018359",
        "latitude": "12.9648277"
      },
      {
        "id": "a0KOX00000F6rNd2AJ",
        "accountpartnerId": "001OX000006uzQOYAY",
        "experienceCenterName": "AW-PRAKASH MOTORS-Wshop",
        "type": "ServiceBranch",
        "address": "SUBBAIAH CIRCLE, LALBAHGH RD, BANGALORE Bengaluru HQ Region, BENGALURU,KARNATAKA, India-560027",
        "postalCode": "560027",
        "longitude": "77.58901101",
        "latitude": "12.96198712"
      },
      {
        "id": "a0KOX00000F6s8M2AR",
        "accountpartnerId": "001OX000009TofOYAS",
        "experienceCenterName": "AW-SAI BIKES-Wshop",
        "type": "ServiceBranch",
        "address": "near Ambedkar College, Papreddy Palya, Papareddipalya, Naagarabhaavi, Bengaluru , BENGALURU,KARNATAKA, India-560072",
        "postalCode": "560072",
        "longitude": "77.517184",
        "latitude": "12.958891"
      },
      {
        "id": "a0KOX00000F6sRj2AJ",
        "accountpartnerId": "001OX000008lEe3YAE",
        "experienceCenterName": "AW-BIMAL MOTORS-Wshop",
        "type": "ServiceBranch",
        "address": "SITE NO-90, BYATARAYANAPURA, BANGALORE NA, BENGALURU,KARNATAKA, India-560092",
        "postalCode": "560092",
        "longitude": "77.59349944",
        "latitude": "13.06793686"
      },
      {
        "id": "a0KOX00000F6sec2AB",
        "accountpartnerId": "0019C000003ZOWeQAO",
        "experienceCenterName": "AW-SAI MOTORS-Wshop",
        "type": "ServiceBranch",
        "address": "218, 100 FT RING RD, BANASHANKARI Bengaluru HQ Region, BENGALURU,KARNATAKA, India-560085",
        "postalCode": "560085",
        "longitude": "77.54850472",
        "latitude": "12.92712227"
      },
      {
        "id": "a0KOX00000F6shq2AB",
        "accountpartnerId": "0019C000003ZOCOQA4",
        "experienceCenterName": "AW-Bhagath Motors-Wshop",
        "type": "ServiceBranch",
        "address": "WARD-25,118, HORAMAVU CROSS, BANASAWA, BANGALORE NA, BENGALURU,KARNATAKA, India-560043",
        "postalCode": "560043",
        "longitude": "77.65642645",
        "latitude": "13.01926687"
      },
      {
        "id": "a0KOX00000F6suj2AB",
        "accountpartnerId": "001OX00000ArGCCYA3",
        "experienceCenterName": "AW-MAX MOTORS-Wshop",
        "type": "ServiceBranch",
        "address": "2 6, DR RAJKUMAR RD, RAJAJINAGAR, RAJAJINAGAR Bengaluru HQ Region, BENGALURU,KARNATAKA, India-560010",
        "postalCode": "560010",
        "longitude": "77.56003698",
        "latitude": "12.98728414"
      },
      {
        "id": "a0KOX00000F6suk2AB",
        "accountpartnerId": "001OX00000A52wRYAR",
        "experienceCenterName": "AW-POORNA MOTORS-Wshop",
        "type": "ServiceBranch",
        "address": "NO-115, RAJANNA COMPLEX, BANGALORE , BENGALURU,KARNATAKA, India-560091",
        "postalCode": "560091",
        "longitude": "77.48574345",
        "latitude": "12.98586854"
      },
      {
        "id": "a0KOX00000FixQM2AZ",
        "accountpartnerId": "001OX00000WVeTTYA1",
        "experienceCenterName": "WH-BHAGATH MOTORS",
        "type": "Warehouse",
        "address": "1ST FLOOR, 118, BHAGATH HERO, HORAMAVU CROSS, BANASWADI RING ROAD, Bengaluru Bangalore Urban, Karnataka-560043 NA, BENGALURU,KARNATAKA, India-560043",
        "postalCode": "560043",
        "longitude": "77.656405",
        "latitude": "13.0191519"
      },
      {
        "id": "a0KOX00000Fj3p72AB",
        "accountpartnerId": "001OX00000WVeTTYA1",
        "experienceCenterName": "BHAGATH MOTORS",
        "type": "Experience Centre",
        "address": "1ST FLOOR, 118, BHAGATH HERO, HORAMAVU CROSS, BANASWADI RING ROAD, Bengaluru Bangalore Urban, Karnataka-560043 NA, BENGALURU,KARNATAKA, India-560043",
        "postalCode": "560043",
        "longitude": "77.656405",
        "latitude": "13.0191519"
      }
    ],
    "serviceCenter": [
      {
        "id": "a0K5h00000769ypEAA",
        "accountpartnerId": "0015h000011mUwEAAU",
        "experienceCenterName": "AW-BLR-OnSite",
        "type": "Mobile Service Branch",
        "address": "Opp to Magadi road metro station, 76, RT Krishna Autos, Magadi Road, Magadi Road Area, Bengaluru-560023 , BENGALURU,KARNATAKA, India-560023",
        "postalCode": "560023",
        "longitude": "77.55473612668814",
        "latitude": "12.975250865097456"
      },
      {
        "id": "a0K9C000000VYW1UAO",
        "accountpartnerId": "0019C000003ZO3tQAG",
        "experienceCenterName": "AW - Vaayuratha Motors - Onsite",
        "type": "Mobile Service Branch",
        "address": "VAAYURATHA MOTORS, 25, 5D, AS MERIDIAN 2, BANGALORE, PIN-560037, KAR NA, BENGALURU,KARNATAKA, India-560037",
        "postalCode": "560037",
        "longitude": "",
        "latitude": ""
      },
      {
        "id": "a0K9C000000VYa3UAG",
        "accountpartnerId": "0019C000003ZOCOQA4",
        "experienceCenterName": "AW - Bhagath Motors - Onsite",
        "type": "Mobile Service Branch",
        "address": "BHAGATH MOTORS, WARD-25 118 HORAMAVU CROSS BANASAWA NA, BENGALURU,KARNATAKA, India-560043",
        "postalCode": "560043",
        "longitude": "",
        "latitude": ""
      },
      {
        "id": "a0K9C000000VYaDUAW",
        "accountpartnerId": "0019C000003ZNgzQAG",
        "experienceCenterName": "AW - SAI BIKES - Onsite",
        "type": "Mobile Service Branch",
        "address": "SAI BIKES, P-6E, PEENYA INDL AREA, LAKSHMIDEVI, BANGALORE, PIN-560058, KAR Bengaluru HQ Region, BENGALURU,KARNATAKA, India-560058",
        "postalCode": "560058",
        "longitude": "",
        "latitude": ""
      },
      {
        "id": "a0K9C000000VYaNUAW",
        "accountpartnerId": "0019C000003ZOWeQAO",
        "experienceCenterName": "AW - SAI MOTORS - Onsite_Bengaluru",
        "type": "Mobile Service Branch",
        "address": "SAI MOTORS, 218, 100 FT RING RD, BANASHANKARI, BANGALORE, PIN-560085, KAR Bengaluru HQ Region, BENGALURU,KARNATAKA, India-560085",
        "postalCode": "560085",
        "longitude": "",
        "latitude": ""
      },
      {
        "id": "a0KOX00000F6n8i2AB",
        "accountpartnerId": "0019C000003ZNgzQAG",
        "experienceCenterName": "AW-SAI BIKES-Wshop",
        "type": "ServiceBranch",
        "address": "P-6E, PEENYA INDL AREA, LAKSHMIDEVI, BANGALORE Bengaluru HQ Region, BENGALURU,KARNATAKA, India-560058",
        "postalCode": "560058",
        "longitude": "77.52134387",
        "latitude": "13.03798878"
      },
      {
        "id": "a0KOX00000F6qGE2AZ",
        "accountpartnerId": "001OX00000DKfytYAD",
        "experienceCenterName": "AW-V3S MOTORS-Wshop",
        "type": "ServiceBranch",
        "address": "12, 1st Stage, BTM 1st Stage, Bengaluru Bengaluru HQ Region, BENGALURU,KARNATAKA, India-560029",
        "postalCode": "560029",
        "longitude": "77.605451",
        "latitude": "12.930522"
      },
      {
        "id": "a0KOX00000F6r5s2AB",
        "accountpartnerId": "001OX000004xaABYAY",
        "experienceCenterName": "AW-RT KRISHNA AUTOS-Wshop",
        "type": "ServiceBranch",
        "address": "M S Sornam Elite, AECS Layout, Singasandra, Bengaluru Bengaluru HQ Region, BENGALURU,KARNATAKA, India-560068",
        "postalCode": "560068",
        "longitude": "77.631366",
        "latitude": "12.903609"
      },
      {
        "id": "a0KOX00000F6rAj2AJ",
        "accountpartnerId": "0019C000003ZO3tQAG",
        "experienceCenterName": "AW-VAAYURATHA MOTORS-Wshop",
        "type": "ServiceBranch",
        "address": "25, 5D, AS MERIDIAN 2, BANGALORE NA, BENGALURU,KARNATAKA, India-560037",
        "postalCode": "560037",
        "longitude": "77.7018359",
        "latitude": "12.9648277"
      },
      {
        "id": "a0KOX00000F6rNd2AJ",
        "accountpartnerId": "001OX000006uzQOYAY",
        "experienceCenterName": "AW-PRAKASH MOTORS-Wshop",
        "type": "ServiceBranch",
        "address": "SUBBAIAH CIRCLE, LALBAHGH RD, BANGALORE Bengaluru HQ Region, BENGALURU,KARNATAKA, India-560027",
        "postalCode": "560027",
        "longitude": "77.58901101",
        "latitude": "12.96198712"
      },
      {
        "id": "a0KOX00000F6s8M2AR",
        "accountpartnerId": "001OX000009TofOYAS",
        "experienceCenterName": "AW-SAI BIKES-Wshop",
        "type": "ServiceBranch",
        "address": "near Ambedkar College, Papreddy Palya, Papareddipalya, Naagarabhaavi, Bengaluru , BENGALURU,KARNATAKA, India-560072",
        "postalCode": "560072",
        "longitude": "77.517184",
        "latitude": "12.958891"
      },
      {
        "id": "a0KOX00000F6sRj2AJ",
        "accountpartnerId": "001OX000008lEe3YAE",
        "experienceCenterName": "AW-BIMAL MOTORS-Wshop",
        "type": "ServiceBranch",
        "address": "SITE NO-90, BYATARAYANAPURA, BANGALORE NA, BENGALURU,KARNATAKA, India-560092",
        "postalCode": "560092",
        "longitude": "77.59349944",
        "latitude": "13.06793686"
      },
      {
        "id": "a0KOX00000F6sec2AB",
        "accountpartnerId": "0019C000003ZOWeQAO",
        "experienceCenterName": "AW-SAI MOTORS-Wshop",
        "type": "ServiceBranch",
        "address": "218, 100 FT RING RD, BANASHANKARI Bengaluru HQ Region, BENGALURU,KARNATAKA, India-560085",
        "postalCode": "560085",
        "longitude": "77.54850472",
        "latitude": "12.92712227"
      },
      {
        "id": "a0KOX00000F6shq2AB",
        "accountpartnerId": "0019C000003ZOCOQA4",
        "experienceCenterName": "AW-Bhagath Motors-Wshop",
        "type": "ServiceBranch",
        "address": "WARD-25,118, HORAMAVU CROSS, BANASAWA, BANGALORE NA, BENGALURU,KARNATAKA, India-560043",
        "postalCode": "560043",
        "longitude": "77.65642645",
        "latitude": "13.01926687"
      },
      {
        "id": "a0KOX00000F6suj2AB",
        "accountpartnerId": "001OX00000ArGCCYA3",
        "experienceCenterName": "AW-MAX MOTORS-Wshop",
        "type": "ServiceBranch",
        "address": "2 6, DR RAJKUMAR RD, RAJAJINAGAR, RAJAJINAGAR Bengaluru HQ Region, BENGALURU,KARNATAKA, India-560010",
        "postalCode": "560010",
        "longitude": "77.56003698",
        "latitude": "12.98728414"
      },
      {
        "id": "a0KOX00000F6suk2AB",
        "accountpartnerId": "001OX00000A52wRYAR",
        "experienceCenterName": "AW-POORNA MOTORS-Wshop",
        "type": "ServiceBranch",
        "address": "NO-115, RAJANNA COMPLEX, BANGALORE , BENGALURU,KARNATAKA, India-560091",
        "postalCode": "560091",
        "longitude": "77.48574345",
        "latitude": "12.98586854"
      }
    ],
    "chargingStations": [
      {
        "stationId": "23",
        "stationName": "ORION Rajaji MALL",
        "chargingStationAddress": "Dr Rajkumar Rd, Rajajinagar, Bengaluru, Karnataka",
        "longitude": "77.55506",
        "latitude": "13.01105",
        "cityLocation": ""
      },
      {
        "stationId": "24",
        "stationName": "BPCL UDAYA FILLING ST",
        "chargingStationAddress": "No 7, 7/1, 7/2 Binnypet, Magadi Main Rd, next to ETA Mall, Markandeswara Nagar, Bengaluru, Karnataka",
        "longitude": "77.56300000",
        "latitude": "12.9660000",
        "cityLocation": ""
      },
      {
        "stationId": "27",
        "stationName": "Orion Uptown Mall",
        "chargingStationAddress": "Huskur, 7, Old Madras Rd, Sannatammanahalli, Bengaluru, Karnataka",
        "longitude": "77.76389",
        "latitude": "13.05526",
        "cityLocation": ""
      },
      {
        "stationId": "28",
        "stationName": "Forum Neighbourhood Mall, Whitefield",
        "chargingStationAddress": "No.62, Whitefield Main Rd, Prestige Ozone, Whitefield, Bengaluru, Karnataka",
        "longitude": "77.74700000",
        "latitude": "12.9590000",
        "cityLocation": ""
      },
      {
        "stationId": "29",
        "stationName": "Forum Shanti Niketan Mall",
        "chargingStationAddress": "Whitefield Main Rd, Thigalarapalya, Krishnarajapura, Bengaluru,  Karnataka",
        "longitude": "77.72800000",
        "latitude": "12.9890000",
        "cityLocation": ""
      },
      {
        "stationId": "30",
        "stationName": "The Marquee",
        "chargingStationAddress": "42, Vittal Mallya Rd, D Souza Layout, Sampangi Rama Nagar, Bengaluru, Karnataka 560001",
        "longitude": "77.59783702",
        "latitude": "12.9710850",
        "cityLocation": ""
      },
      {
        "stationId": "31",
        "stationName": "Forum Kormangla Mall",
        "chargingStationAddress": "The Nexus Mall, Hosur Rd, Chikku Lakshmaiah Layout, Koramangala, Bengaluru, Karnataka",
        "longitude": "77.61100000",
        "latitude": "12.9340000",
        "cityLocation": ""
      },
      {
        "stationId": "32",
        "stationName": "BPCL BENGALORE FIL ST",
        "chargingStationAddress": "Survey No 88, Kanakapura Road Doddakallasandra Bengaluru, Karnataka -",
        "longitude": "77.55523132",
        "latitude": "12.8857375",
        "cityLocation": ""
      },
      {
        "stationId": "37",
        "stationName": "BPCL SRI VARSATH",
        "chargingStationAddress": "BPCL SRI VARSATH, No E 1, 7, Bannerghatta Main Rd, Syndicate Bank Colony, Omkar Nagar, Arekere, Bengaluru, Karnataka 560076",
        "longitude": "77.59600000",
        "latitude": "12.8830000",
        "cityLocation": ""
      },
      {
        "stationId": "38",
        "stationName": "Vega City Mall",
        "chargingStationAddress": "Vega City Mall, Bannerghatta Main Rd, Dollars Colony, BTM 2nd Stage, J. P. Nagar, Bengaluru, Karnataka 560046",
        "longitude": "77.60100000",
        "latitude": "12.9070000",
        "cityLocation": ""
      },
      {
        "stationId": "54",
        "stationName": "BPCL PATEL FILLING ST",
        "chargingStationAddress": "Site No 617/563/9/1 Kothanur Bengaluru, Karnataka - 560077",
        "longitude": "77.64891220",
        "latitude": "13.0593883",
        "cityLocation": ""
      },
      {
        "stationId": "55",
        "stationName": "GT World Mall",
        "chargingStationAddress": "Magadi Main Rd, next to Prasanna Theatre, Cholourpalya, Bengaluru, Karnataka 560023",
        "longitude": "77.55161501",
        "latitude": "12.9738201",
        "cityLocation": ""
      },
      {
        "stationId": "56",
        "stationName": "Gopalan Promenade Mall",
        "chargingStationAddress": "92/980 Feet Road, Kathriguppe Main Rd, Banashankari 3rd Stage,   Bengaluru, Karnataka 560085",
        "longitude": "77.55000000",
        "latitude": "12.9200000",
        "cityLocation": ""
      },
      {
        "stationId": "61",
        "stationName": "HPCL Sharadha Prakash",
        "chargingStationAddress": "Sandeep Unkrishna, 1, Yelahanka Rd, Umar Farooq Colony, Adityanagar, Vidyaranyapura, Bengaluru, Karnataka ",
        "longitude": "77.55397",
        "latitude": "13.09196",
        "cityLocation": ""
      },
      {
        "stationId": "62",
        "stationName": "VIDA Service Center",
        "chargingStationAddress": "Prop. No. 76, Opposite Magadi Road Metro Station, Magadi, Bengaluru Urban, Bangalore-560023",
        "longitude": "77.55400000",
        "latitude": "12.9750000",
        "cityLocation": ""
      },
      {
        "stationId": "63",
        "stationName": "HPCL Raghvendra Service Station",
        "chargingStationAddress": "CA Site, NH 4 Bda, Industrial Suburb 2nd Stage, Peenya, Bengaluru, Karnataka 560058 (nearby McDonalds)",
        "longitude": "77.53058117",
        "latitude": "13.0337635",
        "cityLocation": ""
      },
      {
        "stationId": "68",
        "stationName": "Gopalan Arcade Mall",
        "chargingStationAddress": "Mysore Rd, Kenchenhalli, RR Nagar, Bengaluru, Karnataka 560098",
        "longitude": "77.51700000",
        "latitude": "12.9360000",
        "cityLocation": ""
      },
      {
        "stationId": "69",
        "stationName": "Gopalan Innovation Mall",
        "chargingStationAddress": "22, Bannerghatta Main Rd, Sarakki Industrial Layout, 3rd Phase, J. P. Nagar, Bengaluru, Karnataka 560076",
        "longitude": "77.59900000",
        "latitude": "12.9150000",
        "cityLocation": ""
      },
      {
        "stationId": "71",
        "stationName": "Gopalan Signature Mall",
        "chargingStationAddress": "Old Madras Rd, Nagavarapalya, Bengaluru, Karnataka 560093",
        "longitude": "77.66000000",
        "latitude": "12.9900000",
        "cityLocation": ""
      },
      {
        "stationId": "72",
        "stationName": "Freedo Warehouse",
        "chargingStationAddress": "FREEDO SPACE, No.-168/13 Singasandra Lake, Building No-3 and 4, Hosur Road,, Behind Dakshin Honda Showroom,Bangalore - 560066",
        "longitude": "77.64000000",
        "latitude": "12.8834603",
        "cityLocation": ""
      },
      {
        "stationId": "73",
        "stationName": "Gopalan Sirsi Mall",
        "chargingStationAddress": "148, Near Old Tollgate Bus Stop Sirsi circle, Mysore Rd, Bengaluru, Karnataka 560026",
        "longitude": "77.55350000",
        "latitude": "12.9583000",
        "cityLocation": ""
      },
      {
        "stationId": "125",
        "stationName": "RT KRISHNA AUTOS",
        "chargingStationAddress": "260/5, 11th main, Hosur main road Bommanahalli Bangalore 560068",
        "longitude": "77.630661",
        "latitude": "12.904653",
        "cityLocation": ""
      },
      {
        "stationId": "126",
        "stationName": "SAI BIKES",
        "chargingStationAddress": "P 6(E), 1st Stage, Peenya Industrial Area, Lakshmidevi Nagar, Opp. Pillar no 39E, Tumkur Road, Bangalore,560058",
        "longitude": "77.5213788",
        "latitude": "13.0379327",
        "cityLocation": ""
      },
      {
        "stationId": "127",
        "stationName": "VAAYURATHA MOTORS",
        "chargingStationAddress": "25,5D,AS MERIDIAN 2,BRINDAVAN EXT,ANAND NAGAR,MARATHAHALLI BANGALORE Karnataka 560037",
        "longitude": "77.70182",
        "latitude": "12.96457",
        "cityLocation": ""
      },
      {
        "stationId": "137",
        "stationName": "SAI MOTORS",
        "chargingStationAddress": "No.218, 100 ft Ring Road, 3rd Stage, 3rd Phase, 2nd Block, Banashankri,Bengaluru Urban, Karnataka,560085",
        "longitude": "77.54808630",
        "latitude": "12.9268504",
        "cityLocation": ""
      },
      {
        "stationId": "138",
        "stationName": "BHAGATH MOTORS",
        "chargingStationAddress": "No 118, HORAMAVU CROSS, BANASAWADI RING ROAD, BANGALORE -560043",
        "longitude": "77.656405",
        "latitude": "13.0191519",
        "cityLocation": ""
      },
      {
        "stationId": "414",
        "stationName": "BIMAL MOTORS - (POD)",
        "chargingStationAddress": "BIMAL MOTORS - (POD) , Site No 90 Bellary Rd, NH 44, Byatarayanapura, Bengaluru, Karnataka 560092",
        "longitude": "77.59352",
        "latitude": "13.06776",
        "cityLocation": ""
      },
      {
        "stationId": "418",
        "stationName": "POORNA MOTORS - (POD)",
        "chargingStationAddress": "POORNA MOTORS - (POD) , 115, Magadi Main Rd, Anjana Nagar, Bedarahalli, Bengaluru, Karnataka 560091",
        "longitude": "77.48553",
        "latitude": "12.98565",
        "cityLocation": ""
      },
      {
        "stationId": "419",
        "stationName": "PRAKASH MOTORS - (POD)",
        "chargingStationAddress": "PRAKASH MOTORS - (POD) , Shop No 15, Lal Bagh Main Rd, near Subbaiah Circle, Sudhama Nagar, Bengaluru, Karnataka 560027",
        "longitude": "77.58899",
        "latitude": "12.96172",
        "cityLocation": ""
      },
      {
        "stationId": "422",
        "stationName": "V3S MOTORS - (Premia)",
        "chargingStationAddress": "12, 100 Feet Ring Rd,Filler no 137 1st Stage BTM, Nagar, 1st Stage, BTM 1st Stage, Bengaluru, Karnataka 560029",
        "longitude": "77.60714",
        "latitude": "12.91683",
        "cityLocation": ""
      },
      {
        "stationId": "514",
        "stationName": "MAX MOTORS - (POD)",
        "chargingStationAddress": "MAX MOTORS - (POD) , 2, 6, Dr Rajkumar Rd, Udayam Nagar, Rajajinagar, Bengaluru, Karnataka 560010",
        "longitude": "77.56009",
        "latitude": "12.98706",
        "cityLocation": ""
      },
      {
        "stationId": "734",
        "stationName": "RT KRISHNA AUTOS (2.0)",
        "chargingStationAddress": "RT KRISHNA AUTOS (2.0) , No 5/6, 1, Hosur Rd, Lavakusha Nagar, Pragathi Nagar, Electronic City, Beratena Agrahara, Bengaluru, Karnataka 560100",
        "longitude": "77.65846",
        "latitude": "12.86399",
        "cityLocation": ""
      }
    ],
    "swappingStations": [],
    "atherChargingStations": [
      {
        "stationId": "4310",
        "stationName": "MSR Town Hall",
        "chargingStationAddress": "MSR Building, Dhanalakshmi Bank, JC Rd, Kumbaragundi, Kalasipalya, Bengaluru, Karnataka 560002",
        "longitude": "77.5838443",
        "latitude": "12.9613299",
        "cityLocation": ""
      },
      {
        "stationId": "4548",
        "stationName": "Prestige Khoday Tower",
        "chargingStationAddress": "No 5, Raj Bhavan Road, Vasanth Nagar",
        "longitude": "77.59266",
        "latitude": "12.982297",
        "cityLocation": ""
      },
      {
        "stationId": "4704",
        "stationName": "Futura Digital, Chamrajpet",
        "chargingStationAddress": "No 13 \u0026 14, 4th Main, 2nd Cross Road, Chamrajpet, ",
        "longitude": "77.568471",
        "latitude": "12.957825",
        "cityLocation": ""
      },
      {
        "stationId": "5229",
        "stationName": "Corniche Al Latheef, Balekundri Circle",
        "chargingStationAddress": "No.25, Corniche Al Latheef, Cunningham Road, Behind Indian Express Building, Shivaji Nagar",
        "longitude": "77.59777",
        "latitude": "12.983933",
        "cityLocation": ""
      },
      {
        "stationId": "5187",
        "stationName": "Eden Park, Cunningham Road",
        "chargingStationAddress": "Eden Park, Cunningham Road, Behind The Hindu Newspaper Office, Shivaji Nagar",
        "longitude": "77.59875",
        "latitude": "12.982924",
        "cityLocation": ""
      },
      {
        "stationId": "4250",
        "stationName": "Ather Space Rajajinagar",
        "chargingStationAddress": "No. 0025 (Old no.1003), 59th C Cross, 4th M Block, Sriram Mandir, Dr.Rajkumar Road, Rajaji Nagar",
        "longitude": "77.560699",
        "latitude": "12.982706",
        "cityLocation": ""
      },
      {
        "stationId": "3078",
        "stationName": "Cornation Latheef Towers",
        "chargingStationAddress": "No 2/1, Union Street, Infantry Street, Shivaji Nagar",
        "longitude": "77.60195",
        "latitude": "12.982046",
        "cityLocation": ""
      },
      {
        "stationId": "8141",
        "stationName": "Cornation Latheef Towers 2",
        "chargingStationAddress": "No 2/1, Union Street, Infantry Street, Shivaji Nagar",
        "longitude": "77.60194",
        "latitude": "12.982279",
        "cityLocation": ""
      },
      {
        "stationId": "4349",
        "stationName": "Prestige Saleh Ahmed",
        "chargingStationAddress": "No 24, Lady Curzon Road, Tasker Town, Shivaji Nagar,",
        "longitude": "77.603318",
        "latitude": "12.980553",
        "cityLocation": ""
      },
      {
        "stationId": "6852",
        "stationName": "RC Architecture Grid",
        "chargingStationAddress": "16, Serpentine St, Richmond Town, Bengaluru, Karnataka 560025",
        "longitude": "77.60365",
        "latitude": "12.963865",
        "cityLocation": ""
      },
      {
        "stationId": "6057",
        "stationName": "Rasta Cafe, Church Street",
        "chargingStationAddress": "No 3, M S R West Park, Church Street, Bangalore Urban, Karnataka, 560001",
        "longitude": "77.60675",
        "latitude": "12.974377",
        "cityLocation": ""
      },
      {
        "stationId": "3710",
        "stationName": "Ather Space, Basavangudi",
        "chargingStationAddress": "Garuthaman Park Road, 2nd Block, Jaya Nagar East, Jayanagar, Bengaluru, Karnataka 560004",
        "longitude": "77.580186",
        "latitude": "12.942567",
        "cityLocation": ""
      },
      {
        "stationId": "8282",
        "stationName": "Crescent Sam Affa Building",
        "chargingStationAddress": "NO 34/1, Benson A Cross Road, Byadarahalli, Benson Town",
        "longitude": "77.60346",
        "latitude": "12.99834",
        "cityLocation": ""
      },
      {
        "stationId": "3841",
        "stationName": "Video Prints",
        "chargingStationAddress": "Krishna Rajendra Road, 4/4, 3rd Main Road, Near Yediyur Lake, Tata Silk Farm, Jayanagar, Bengaluru",
        "longitude": "77.574305",
        "latitude": "12.935045",
        "cityLocation": ""
      },
      {
        "stationId": "4619",
        "stationName": "Futura Digital ",
        "chargingStationAddress": "No 4/4, 3rd Main, KR Road Cross, Near Yediyur Lake",
        "longitude": "77.5743527",
        "latitude": "12.9348505",
        "cityLocation": ""
      },
      {
        "stationId": "8089",
        "stationName": "Lemon Tree Premier Ulsoor Lake Bengaluru",
        "chargingStationAddress": "No 2/1, St Johns Road, Halasuru, Hermit Colony, Sivanchetti Gardens,",
        "longitude": "77.61657",
        "latitude": "12.987576",
        "cityLocation": ""
      },
      {
        "stationId": "4071",
        "stationName": "Radisson Bengaluru City Center",
        "chargingStationAddress": "2, Gangadhar Chetty Rd, Yellappa Chetty Layout, Sivanchetti Gardens, Halasuru",
        "longitude": "77.619717",
        "latitude": "12.976339",
        "cityLocation": ""
      },
      {
        "stationId": "7293",
        "stationName": "Bon Traders Ather Grid",
        "chargingStationAddress": "Bon Traders, 5th A Main Rd, Tata Silk Farm, Jayanagar, Bengaluru, Karnataka 560028",
        "longitude": "77.573788",
        "latitude": "12.93413",
        "cityLocation": ""
      },
      {
        "stationId": "7439",
        "stationName": "Ather Space, Hennur",
        "chargingStationAddress": "Horamavu Agara Road, Hennur Bande, Hennur Gardens, Bengaluru, Karnataka 560043",
        "longitude": "77.573788",
        "latitude": "12.93413",
        "cityLocation": ""
      },
      {
        "stationId": "4446",
        "stationName": "MSRDB Unity 22",
        "chargingStationAddress": "No 22, Wheeler Road, Pulikeshi Nagar,",
        "longitude": "77.61713",
        "latitude": "12.996117",
        "cityLocation": ""
      },
      {
        "stationId": "4284",
        "stationName": "Orion Mall",
        "chargingStationAddress": "Dr Rajkumar Road, Rajajinagar,",
        "longitude": "77.55454",
        "latitude": "13.0110155",
        "cityLocation": ""
      },
      {
        "stationId": "3855",
        "stationName": "Third Wave Coffee, Banashankari",
        "chargingStationAddress": "30th Main Road, Banagirinagara, Banashankri 3rd Stage, Banashankri, Bengaluru, Karnataka 560070",
        "longitude": "77.561184",
        "latitude": "12.926687",
        "cityLocation": ""
      },
      {
        "stationId": "3758",
        "stationName": "Go Native",
        "chargingStationAddress": "#64, 10th Main Rd, 4th Block, 5th Block, Jayanagar, Bengaluru, Karnataka 560041",
        "longitude": "77.584799",
        "latitude": "12.922549",
        "cityLocation": ""
      },
      {
        "stationId": "4448",
        "stationName": "Sangeetha Mobiles, BSK",
        "chargingStationAddress": "No 1183, 22nd \u0027A\u0027 Cross, 30th Main Road, Near KIMS, Banashankari Stage II",
        "longitude": "77.56098",
        "latitude": "12.926134",
        "cityLocation": ""
      },
      {
        "stationId": "4646",
        "stationName": "Sangeetha Mobiles, Chandra Layout",
        "chargingStationAddress": "Shop #89/A, G Floor, 9th Cross Rd, Chandra Layout",
        "longitude": "77.529186",
        "latitude": "12.9607",
        "cityLocation": ""
      },
      {
        "stationId": "5179",
        "stationName": "Ather Space, Koramangala",
        "chargingStationAddress": "474, 6th Block, 80 Feet Road, Koramangala",
        "longitude": "77.624976",
        "latitude": "12.940294",
        "cityLocation": ""
      },
      {
        "stationId": "6731",
        "stationName": "Kormangala EC",
        "chargingStationAddress": "474, 6th, Block 80, 100 Feet Rd, 6th Block, Koramangala",
        "longitude": "77.624954",
        "latitude": "12.94024",
        "cityLocation": ""
      },
      {
        "stationId": "3486",
        "stationName": "Infinitea",
        "chargingStationAddress": "6, ESI Hospital Road, HAL 2nd Stage, 100 feet Road, Indiranagar, Doopanahalli",
        "longitude": "77.6360145",
        "latitude": "12.9689655",
        "cityLocation": ""
      },
      {
        "stationId": "7927",
        "stationName": "Sangeetha Gadgets",
        "chargingStationAddress": "50-160, TMC Layout, 1st Phase, J. P. Nagar",
        "longitude": "77.57937",
        "latitude": "12.917031",
        "cityLocation": ""
      },
      {
        "stationId": "6788",
        "stationName": "Ather Charging Zone, Sony Signal",
        "chargingStationAddress": "No 620, 17th A Main Road, 4th Cross, Near Sony Signal, 6th Block, Koramangala",
        "longitude": "77.62631",
        "latitude": "12.937446",
        "cityLocation": ""
      },
      {
        "stationId": "4406",
        "stationName": "NMR Enclave",
        "chargingStationAddress": "7/22, NMR enclave, Ejipura main Road , Near Ejipura signal",
        "longitude": "77.631059",
        "latitude": "12.942047",
        "cityLocation": ""
      },
      {
        "stationId": "4233",
        "stationName": "Ather Space Indiranagar",
        "chargingStationAddress": "53, - 3rd main, 100th Feet Road, Defence Colony, Indira Nagar",
        "longitude": "77.6411972",
        "latitude": "12.9756002",
        "cityLocation": ""
      },
      {
        "stationId": "4982",
        "stationName": "J K Complex, Padmanabhanagar",
        "chargingStationAddress": "JK Complex, Opp Lakshmikantha Kalyana Mantapa, Anjaneya Temple Street, 42/29, 11th Main Road, Padmanabhanagar",
        "longitude": "77.55712",
        "latitude": "12.915558",
        "cityLocation": ""
      },
      {
        "stationId": "4950",
        "stationName": "Sangeetha Mobiles, Mathikere",
        "chargingStationAddress": "No 26/3, HMT Main Road, Gokula 1st Stage, Mathikere Extension, Mathikere",
        "longitude": "77.56017",
        "latitude": "13.030701",
        "cityLocation": ""
      },
      {
        "stationId": "4283",
        "stationName": "Ather Space, Hebbal",
        "chargingStationAddress": "No 735, Service Road, Vinayakanagar, Hebbal",
        "longitude": "77.5889883",
        "latitude": "13.0353668",
        "cityLocation": ""
      },
      {
        "stationId": "6791",
        "stationName": "Sree Sai Ather Grid, ST Bed Layout",
        "chargingStationAddress": "No 142, St BED layout, 1st Main Road, 8th Cross Road, Koramangala",
        "longitude": "77.633446",
        "latitude": "12.931933",
        "cityLocation": ""
      },
      {
        "stationId": "4195",
        "stationName": "Sree Sai Vishwanth Arcade",
        "chargingStationAddress": "No 142 SD BED layout, 1st Main Road, 8th Cross Road, Koramangala, Bengaluru, Karnataka 560034",
        "longitude": "77.633384",
        "latitude": "12.931836",
        "cityLocation": ""
      },
      {
        "stationId": "3064",
        "stationName": "Sangeetha Mobiles, Kumarswamy Layout",
        "chargingStationAddress": "No.1423, G Floor, 14th Main Road, 16th Cross Road, I Stage, Kumaraswamy Layout",
        "longitude": "77.56397",
        "latitude": "12.90883",
        "cityLocation": ""
      },
      {
        "stationId": "8123",
        "stationName": "Anugraha Complex, Shampur",
        "chargingStationAddress": "No 115/1, 1st Main Road, Shampura New Extension, Arabic College Post",
        "longitude": "77.613605",
        "latitude": "13.030957",
        "cityLocation": ""
      },
      {
        "stationId": "4875",
        "stationName": "Ather Space, JP Nagar",
        "chargingStationAddress": "292, Outer Ring Rd, J P Nagar Phase 5",
        "longitude": "77.59091",
        "latitude": "12.906173",
        "cityLocation": ""
      },
      {
        "stationId": "6730",
        "stationName": "Caf Coffee Day, J P Nagar",
        "chargingStationAddress": "Site No. 300, Ground Floor, Outer Ring Road, J. P. Nagar",
        "longitude": "77.59184",
        "latitude": "12.906207",
        "cityLocation": ""
      },
      {
        "stationId": "4846",
        "stationName": "AR Complex",
        "chargingStationAddress": "No 1209, A R Complex, 3rd Block, 80 Feet Road, HBR Layout",
        "longitude": "77.622574",
        "latitude": "13.026752",
        "cityLocation": ""
      },
      {
        "stationId": "4941",
        "stationName": "Sangeetha Mobiles, HBR Layout",
        "chargingStationAddress": "No 54, 80 Feet Main Road, Next to Muthoot Finance, HBR Layout,",
        "longitude": "77.62879",
        "latitude": "13.025454",
        "cityLocation": ""
      },
      {
        "stationId": "6063",
        "stationName": "MSR Plaza, Gokula",
        "chargingStationAddress": "No. 8, Gokula House, MSR Road, Gokula, Bangalore - 560 054",
        "longitude": "77.55503",
        "latitude": "13.039947",
        "cityLocation": ""
      },
      {
        "stationId": "3603",
        "stationName": "Fab Cafe",
        "chargingStationAddress": "915, Kenchena Halli Rd, Remco Bhel Layout, Kenchenhalli, RR Nagar",
        "longitude": "77.517365",
        "latitude": "12.9340925",
        "cityLocation": ""
      },
      {
        "stationId": "4585",
        "stationName": "The Gamechanger, Gokula ",
        "chargingStationAddress": "No. 112, MSR Colony, MS Ramaiah Main Road, HMR Layout, Gokula Extension, Mathikere, Bengaluru, Karnataka 560054",
        "longitude": "77.5551144",
        "latitude": "13.0408684",
        "cityLocation": ""
      },
      {
        "stationId": "5299",
        "stationName": "Ather Space Nagarabhavi",
        "chargingStationAddress": "# 25, 80 feet outer ring road Papareddypalya, Nagarabhavi 2nd Stage Bangalore -560072",
        "longitude": "77.50569",
        "latitude": "12.968322",
        "cityLocation": ""
      },
      {
        "stationId": "7298",
        "stationName": "Prime Gases Ather Grid",
        "chargingStationAddress": "No.16, 2nd Cross Rd, HIG Sector, HIG Colony, Dollars Colony, R.M.V. 2nd Stage, Bengaluru, Karnataka 560094",
        "longitude": "77.5706786",
        "latitude": "13.0454101",
        "cityLocation": ""
      },
      {
        "stationId": "3835",
        "stationName": "Cafe Azzure",
        "chargingStationAddress": "No 315, CMR Road, 3rd Block, HRBR Layout, Kalyan Nagar,",
        "longitude": "77.63528",
        "latitude": "13.023563",
        "cityLocation": ""
      },
      {
        "stationId": "7086",
        "stationName": "Venkatam Cafe",
        "chargingStationAddress": "Venkatam Cafe, Service Rd, Yogesh Nagar, Nagavara, Bengaluru, Karnataka 560024",
        "longitude": "77.60106",
        "latitude": "13.044018",
        "cityLocation": ""
      },
      {
        "stationId": "7148",
        "stationName": "Footprints: PlaySchool",
        "chargingStationAddress": "7th Main Road, 3rd Cross Rd, HRBR Layout 1st Block, Kalyan Nagar, Bengaluru, Karnataka, 560043",
        "longitude": "77.644485",
        "latitude": "13.017599",
        "cityLocation": ""
      },
      {
        "stationId": "6054",
        "stationName": "Indigo XP HSR",
        "chargingStationAddress": "14, 9th Main Road, 13th Cross, Sector 6, HSR Layout",
        "longitude": "77.63456",
        "latitude": "12.915948",
        "cityLocation": ""
      },
      {
        "stationId": "8001",
        "stationName": "United Techo Grid - Manyata",
        "chargingStationAddress": "Bheemaneni Towers, 78/1, 14th Cross Rd, Chanakya Layout, Nagavara, Bengaluru, Karnataka 560045",
        "longitude": "77.61913",
        "latitude": "13.040103",
        "cityLocation": ""
      },
      {
        "stationId": "6939",
        "stationName": "Venkateshwara Enclave, Hennur",
        "chargingStationAddress": "BLOCK-A, GOLDEN MEADOWS GRACE GARDEN APARTMENT, 545/36/1, Hennur 4th Cross Rd, Chelekare, Kalyan Nagar, Bengaluru, Karnataka 560043",
        "longitude": "77.634605",
        "latitude": "13.029444",
        "cityLocation": ""
      },
      {
        "stationId": "8145",
        "stationName": "Futura Digital 2",
        "chargingStationAddress": "Kalpavruksha No 64, Bikasipura 1st Main Road, Vikram Nagar, ISRO Layout, Next to Bank Of Baroda",
        "longitude": "77.5606",
        "latitude": "12.897231",
        "cityLocation": ""
      },
      {
        "stationId": "8224",
        "stationName": "The Gloss Factory - OMBR",
        "chargingStationAddress": "305, B.Channasandra Main Rd, OMBR Layout, Bennigana Halli, Bengaluru, Karnataka 560043",
        "longitude": "77.6513641",
        "latitude": "13.0085825",
        "cityLocation": ""
      },
      {
        "stationId": "5211",
        "stationName": "SLV Commercial Complex",
        "chargingStationAddress": "84, Kengeri Rd, Poornapragna Housing Society Layout",
        "longitude": "77.534011",
        "latitude": "12.90819",
        "cityLocation": ""
      },
      {
        "stationId": "3077",
        "stationName": "Yuma Ather Grid, Jayanagar",
        "chargingStationAddress": "No 20, 7th Main Road, Silver Oak Layout, 7th Phase, J. P. Nagar",
        "longitude": "77.5859",
        "latitude": "12.891974",
        "cityLocation": ""
      },
      {
        "stationId": "7424",
        "stationName": "M S Interiors",
        "chargingStationAddress": "No 7. 100/1, 44th Cross, 19th Main, 5th Block, 1st Stage, HBR Layout,",
        "longitude": "77.63072",
        "latitude": "13.039933",
        "cityLocation": ""
      },
      {
        "stationId": "7141",
        "stationName": "SJPR Heights Ather Grid",
        "chargingStationAddress": "7, Opposite Navya Bar And Restaurant Beml Layout, Kenchena Halli Rd, BEML Layout 3rd Stage, Rajarajeshwari Nagar, Bengaluru, Karnataka 560098",
        "longitude": "77.51395",
        "latitude": "12.919323",
        "cityLocation": ""
      },
      {
        "stationId": "3876",
        "stationName": "Irani Chai",
        "chargingStationAddress": "294, 15th Cross Road, Sector 4, HSR Layout",
        "longitude": "77.644164",
        "latitude": "12.91371",
        "cityLocation": ""
      },
      {
        "stationId": "4376",
        "stationName": "TORQ92",
        "chargingStationAddress": "15, 5th Cross Road, Shantivana, Next to Sterling Park Apts, Kodigehalli Main Road, Sahakara Nagar, Bengaluru",
        "longitude": "77.5871507",
        "latitude": "13.057629",
        "cityLocation": ""
      },
      {
        "stationId": "8002",
        "stationName": "Aryan Technical Solutions",
        "chargingStationAddress": "No 10, 8th Cross Road, Sanjeevani Nagar, Hegganahalli Cross, Lakshman Nagar, Sanjeevini Nagar.",
        "longitude": "77.4972386",
        "latitude": "13.0012547",
        "cityLocation": ""
      },
      {
        "stationId": "4714",
        "stationName": "Smarttron Automations",
        "chargingStationAddress": "4th Floor, 1031, 24th Main Rd, 1st Sector, HSR Layout",
        "longitude": "77.64921",
        "latitude": "12.917819",
        "cityLocation": ""
      },
      {
        "stationId": "7363",
        "stationName": "Tesorio - The Sourdough Pizza Kitchen",
        "chargingStationAddress": "No 918/B, NTI Layout, Rajiv Gandhi Nagar, Kodigehalli,",
        "longitude": "77.57573",
        "latitude": "13.063318",
        "cityLocation": ""
      },
      {
        "stationId": "3076",
        "stationName": "Sangeetha Mobiles, Vidhyaranyapura",
        "chargingStationAddress": "No 1023/55/2/1A. Ward No 5, Sri Krishna Temple Road, Vidyaranyapura",
        "longitude": "77.55965",
        "latitude": "13.06502",
        "cityLocation": ""
      },
      {
        "stationId": "6803",
        "stationName": "KTC Legacy Charging Station",
        "chargingStationAddress": "Kempapura, Bellandur, Bengaluru, Karnataka 560037",
        "longitude": "77.674155",
        "latitude": "12.945589",
        "cityLocation": ""
      },
      {
        "stationId": "8134",
        "stationName": "Ather Space, T. Dasarahalli",
        "chargingStationAddress": "577, Lakshmaiah Complex, Next to Agarwal Bhavan, Chokkasandra, T. Dasarahalli",
        "longitude": "77.51379",
        "latitude": "13.042657",
        "cityLocation": ""
      },
      {
        "stationId": "3915",
        "stationName": "Royal Airavatha",
        "chargingStationAddress": " #749/1, Near R V Engineering College",
        "longitude": "77.4954986",
        "latitude": "12.9223003",
        "cityLocation": ""
      },
      {
        "stationId": "3933",
        "stationName": "Sattva ",
        "chargingStationAddress": "No 63/64, 4th Cross, Durganagar Layout, Ashrama Road, Beside Nanajappa Layout, RR Nagar",
        "longitude": "77.506308",
        "latitude": "12.907682",
        "cityLocation": ""
      },
      {
        "stationId": "6062",
        "stationName": "Manavee Enclave",
        "chargingStationAddress": "48 \u0026 49, Manavee Enclave, Akashnagar Main Road, Dooravaninagar",
        "longitude": "77.67897",
        "latitude": "12.994736",
        "cityLocation": ""
      },
      {
        "stationId": "4556",
        "stationName": "Ather Grid, Hustlehub ",
        "chargingStationAddress": "No 1799/36,  27th Main,  27th Main Road, Near Power Station, 2nd Sector, HSR Layout",
        "longitude": "77.650129",
        "latitude": "12.899457",
        "cityLocation": ""
      },
      {
        "stationId": "3977",
        "stationName": "Sri Krishna Grand",
        "chargingStationAddress": "Andrahalli Main Road, Gruhalakshmi Housing Colony, Peenya",
        "longitude": "77.4916795",
        "latitude": "13.0270835",
        "cityLocation": ""
      },
      {
        "stationId": "4721",
        "stationName": "Guy Car  Steamer",
        "chargingStationAddress": "No 60 Next to Sobha Classic 83-B Narayanareddy Layout, Haralur Main Rd",
        "longitude": "77.662251",
        "latitude": "12.904089",
        "cityLocation": ""
      },
      {
        "stationId": "8077",
        "stationName": "Sree Arcade Ather Grid",
        "chargingStationAddress": "Andrahalli Main Rd, Tippenahalli, Bengaluru, Karnataka 560073",
        "longitude": "77.484271",
        "latitude": "13.02062",
        "cityLocation": ""
      },
      {
        "stationId": "4221",
        "stationName": "Ather Space Electronic City",
        "chargingStationAddress": "96/2,  Srinivasa Nagar, HAL Layout, Singasandra, Hosur Road",
        "longitude": "77.6425556",
        "latitude": "12.8855278",
        "cityLocation": ""
      },
      {
        "stationId": "7563",
        "stationName": "United Techno Ather Grid",
        "chargingStationAddress": "United Techno Projects Pvt Ltd, Allalasandra, Yelahanka, Bengaluru, Karnataka 560065",
        "longitude": "77.5862916",
        "latitude": "13.0808493",
        "cityLocation": ""
      },
      {
        "stationId": "4474",
        "stationName": "Decathlon Bannerghatta",
        "chargingStationAddress": "Bannerghatta Main Rd, Kalena Agrahara",
        "longitude": "77.590927",
        "latitude": "12.863595",
        "cityLocation": ""
      },
      {
        "stationId": "7127",
        "stationName": "Nagasandra Ather Grid",
        "chargingStationAddress": "Vinayaka Nagar Main Road, Opposite Kennametal Widia, 9th Mile, Tumkur Road, Nagasandra",
        "longitude": "77.497025",
        "latitude": "13.045446",
        "cityLocation": ""
      },
      {
        "stationId": "4949",
        "stationName": "Ather Space Mahadevapura ",
        "chargingStationAddress": "No 4E, Anand Enterprises, Puttappa Industrial Estate, Whitefield Road, Mahadevapura, Bangaluru, Karnataka ",
        "longitude": "77.6905544",
        "latitude": "12.9969719",
        "cityLocation": ""
      },
      {
        "stationId": "8229",
        "stationName": "Ather Space - Kengeri",
        "chargingStationAddress": "Ground Floor, WN 159, Upanagara, Stage I, Kengeri Satellite Town",
        "longitude": "77.48254",
        "latitude": "12.917491",
        "cityLocation": ""
      },
      {
        "stationId": "4016",
        "stationName": "Lead Engineering \u0026 Automation ",
        "chargingStationAddress": "88/4-5, Hosur Road, Aishwarya Crystal Layout, Singasandra",
        "longitude": "77.645291",
        "latitude": "12.878181",
        "cityLocation": ""
      },
      {
        "stationId": "4124",
        "stationName": "Magenta, Hosur Road",
        "chargingStationAddress": "Pattalama Layout, Hosur Rd, Singasandra",
        "longitude": "77.6438",
        "latitude": "12.87684",
        "cityLocation": ""
      },
      {
        "stationId": "3884",
        "stationName": "HPCL Sree Venkateshwara Petroleum  ",
        "chargingStationAddress": "No 21/4A, Chikkabanavara Main Road, Abbigere",
        "longitude": "77.524394",
        "latitude": "13.072132",
        "cityLocation": ""
      },
      {
        "stationId": "8129",
        "stationName": "Keys Select By Lemon Tree Hotels, Hosur Road",
        "chargingStationAddress": "Hosur Road, Singasandra",
        "longitude": "77.64711",
        "latitude": "12.878817",
        "cityLocation": ""
      },
      {
        "stationId": "3523",
        "stationName": "Sangeetha Mobiles, M S Palya",
        "chargingStationAddress": "No 59, Chikkebettahalli, Yelahanka Main Road, M.S. Palya Road",
        "longitude": "77.5487174",
        "latitude": "13.0820259",
        "cityLocation": ""
      },
      {
        "stationId": "4389",
        "stationName": "Ather Space Marathahalli",
        "chargingStationAddress": "Ground Floor , Khata No.310/35, Kadubissanahalli Village, Varthur Hobli, Bengaluru East taluk, Karnataka ",
        "longitude": "77.6966203",
        "latitude": "12.9413159",
        "cityLocation": ""
      },
      {
        "stationId": "8284",
        "stationName": "Sangeetha Gadgets - KR Puram 1",
        "chargingStationAddress": "1231, old Madras Road, Krishnarajapuram, Bengaluru, Karnataka 560036",
        "longitude": "77.69702",
        "latitude": "13.009436",
        "cityLocation": ""
      },
      {
        "stationId": "3751",
        "stationName": "Chek Power Ather Grid",
        "chargingStationAddress": "Sy.No.125/1B, Near KSRTC Regional Workshop, Mysore Road, Kengeri, Bangalore, Karnataka, 560060",
        "longitude": "77.474039",
        "latitude": "12.905525",
        "cityLocation": ""
      },
      {
        "stationId": "5308",
        "stationName": "Ather Space Bannerghatta Road",
        "chargingStationAddress": "103/1, Basavanapura Gate , Gottigere, Bengaluru urban, Karnataka - 560083",
        "longitude": "77.58839",
        "latitude": "12.848755",
        "cityLocation": ""
      },
      {
        "stationId": "8121",
        "stationName": "Keys Select By Lemon Tree Hotels, Whitefield",
        "chargingStationAddress": "Keys Hotel, Plot No 6, 1st Phase, ITPL Main Road, Opp. Graphite India, Industrial Area",
        "longitude": "77.7094112",
        "latitude": "12.9791221",
        "cityLocation": ""
      },
      {
        "stationId": "3913",
        "stationName": "Ather Service Center, Yelahanka",
        "chargingStationAddress": "Udaya Layout, Next to DMart, Yelahanka New Town, Bengaluru, Karnataka.560065",
        "longitude": "77.57457",
        "latitude": "13.098616",
        "cityLocation": ""
      },
      {
        "stationId": "3759",
        "stationName": "Achyutha Arcade",
        "chargingStationAddress": "Sy No 21/1, Yellappa Reddy Layout, Maragondanahalli Main Road, Bidarahalli Hobli, Post, KR Puram, Bengaluru, Karnataka 560036",
        "longitude": "77.692632",
        "latitude": "13.036266",
        "cityLocation": ""
      },